$GNRMC,090101.00,A,5023.61842,N,03028.87999,E,1.838,,080523,,,A*6B
$GNGGA,090101.00,5023.61842,N,03028.87999,E,1,05,6.15,133.3,M,25.8,M,,*43
$GNGSA,M,3,05,20,,,,,,,,,,,7.04,6.15,3.42*13
$GNGSA,M,3,81,82,66,,,,,,,,,,7.04,6.15,3.42*17
$GNRMC,090101.50,A,5023.61860,N,03028.88064,E,1.823,,080523,,,A*60
$GNGGA,090101.50,5023.61860,N,03028.88064,E,1,05,6.16,133.4,M,25.8,M,,*46
$GNGSA,M,3,05,20,,,,,,,,,,,7.04,6.16,3.42*10
$GNGSA,M,3,81,82,66,,,,,,,,,,7.04,6.16,3.42*14
$GNRMC,090102.00,A,5023.61879,N,03028.88124,E,1.330,,080523,,,A*62
$GNGGA,090102.00,5023.61879,N,03028.88124,E,1,05,6.16,133.5,M,25.8,M,,*4C
$GNGSA,M,3,05,20,,,,,,,,,,,7.04,6.16,3.42*10
$GNGSA,M,3,81,82,66,,,,,,,,,,7.04,6.16,3.42*14
$GNRMC,090102.50,A,5023.61900,N,03028.88199,E,1.321,,080523,,,A*6E
$GNGGA,090102.50,5023.61900,N,03028.88199,E,1,05,6.16,133.8,M,25.8,M,,*4D
$GNGSA,M,3,05,20,,,,,,,,,,,7.04,6.16,3.42*10
$GNGSA,M,3,81,82,66,,,,,,,,,,7.04,6.16,3.42*14
$GNRMC,090103.00,A,5023.61924,N,03028.88264,E,1.274,,080523,,,A*6C
$GNGGA,090103.00,5023.61924,N,03028.88264,E,1,05,6.16,134.1,M,25.8,M,,*40
$GNGSA,M,3,05,20,,,,,,,,,,,7.04,6.16,3.42*10
$GNGSA,M,3,81,82,66,,,,,,,,,,7.04,6.16,3.42*14
$GNRMC,090103.50,A,5023.61949,N,03028.88328,E,1.508,,080523,,,A*67
$GNGGA,090103.50,5023.61949,N,03028.88328,E,1,05,6.16,134.3,M,25.8,M,,*45
$GNGSA,M,3,05,20,,,,,,,,,,,7.04,6.16,3.42*10
$GNGSA,M,3,81,82,66,,,,,,,,,,7.04,6.16,3.42*14
$GNRMC,090104.00,A,5023.61968,N,03028.88392,E,1.965,,080523,,,A*60
$GNGGA,090104.00,5023.61968,N,03028.88392,E,1,05,6.16,134.5,M,25.8,M,,*43
$GNGSA,M,3,05,20,,,,,,,,,,,7.04,6.16,3.42*10
$GNGSA,M,3,81,82,66,,,,,,,,,,7.04,6.16,3.42*14
$GNRMC,090104.50,A,5023.61991,N,03028.88482,E,2.011,,080523,,,A*6C
$GNGGA,090104.50,5023.61991,N,03028.88482,E,1,05,6.16,134.9,M,25.8,M,,*4A
$GNGSA,M,3,05,20,,,,,,,,,,,7.05,6.16,3.42*11
$GNGSA,M,3,81,82,66,,,,,,,,,,7.05,6.16,3.42*15
$GNRMC,090105.00,A,5023.62012,N,03028.88561,E,1.590,,080523,,,A*6A
$GNGGA,090105.00,5023.62012,N,03028.88561,E,1,05,6.16,135.3,M,25.8,M,,*48
$GNGSA,M,3,05,20,,,,,,,,,,,7.05,6.16,3.42*11
$GNGSA,M,3,81,82,66,,,,,,,,,,7.05,6.16,3.42*15
$GNRMC,090105.50,A,5023.62031,N,03028.88625,E,1.499,,080523,,,A*65
$GNGGA,090105.50,5023.62031,N,03028.88625,E,1,05,6.16,135.5,M,25.8,M,,*49
$GNGSA,M,3,05,20,,,,,,,,,,,7.05,6.16,3.42*11
$GNGSA,M,3,81,82,66,,,,,,,,,,7.05,6.16,3.42*15
$GNRMC,090106.00,A,5023.62039,N,03028.88674,E,1.232,,080523,,,A*68
$GNGGA,090106.00,5023.62039,N,03028.88674,E,1,05,6.16,135.7,M,25.8,M,,*41
$GNGSA,M,3,05,20,,,,,,,,,,,7.05,6.16,3.42*11
$GNGSA,M,3,81,82,66,,,,,,,,,,7.05,6.16,3.42*15
$GNRMC,090106.50,A,5023.62050,N,03028.88741,E,1.450,,080523,,,A*67
$GNGGA,090106.50,5023.62050,N,03028.88741,E,1,05,6.16,136.0,M,25.8,M,,*48
$GNGSA,M,3,05,20,,,,,,,,,,,7.05,6.16,3.42*11
$GNGSA,M,3,81,82,66,,,,,,,,,,7.05,6.16,3.42*15
$GNRMC,090107.00,A,5023.62068,N,03028.88815,E,1.898,,080523,,,A*6E
$GNGGA,090107.00,5023.62068,N,03028.88815,E,1,05,6.16,136.3,M,25.8,M,,*4A
$GNGSA,M,3,05,20,,,,,,,,,,,7.05,6.16,3.42*11
$GNGSA,M,3,81,82,66,,,,,,,,,,7.05,6.16,3.42*15
$GNRMC,090107.50,A,5023.62085,N,03028.88860,E,2.379,,080523,,,A*6D
$GNGGA,090107.50,5023.62085,N,03028.88860,E,1,05,6.16,136.2,M,25.8,M,,*4F
$GNGSA,M,3,05,20,,,,,,,,,,,7.05,6.16,3.42*11
$GNGSA,M,3,81,82,66,,,,,,,,,,7.05,6.16,3.42*15
$GNRMC,090108.00,A,5023.62103,N,03028.88918,E,1.904,,080523,,,A*65
$GNGGA,090108.00,5023.62103,N,03028.88918,E,1,05,6.16,136.4,M,25.8,M,,*42
$GNGSA,M,3,05,20,,,,,,,,,,,7.05,6.16,3.42*11
$GNGSA,M,3,81,82,66,,,,,,,,,,7.05,6.16,3.42*15
$GNRMC,090108.50,A,5023.62118,N,03028.88986,E,1.308,,080523,,,A*6B
$GNGGA,090108.50,5023.62118,N,03028.88986,E,1,05,6.16,136.8,M,25.8,M,,*46
$GNGSA,M,3,05,20,,,,,,,,,,,7.05,6.16,3.42*11
$GNGSA,M,3,81,82,66,,,,,,,,,,7.05,6.16,3.42*15
$GNRMC,090109.00,A,5023.62132,N,03028.89056,E,2.189,,080523,,,A*6A
$GNGGA,090109.00,5023.62132,N,03028.89056,E,1,05,6.16,137.2,M,25.8,M,,*44
$GNGSA,M,3,05,20,,,,,,,,,,,7.05,6.16,3.42*11
$GNGSA,M,3,81,82,66,,,,,,,,,,7.05,6.16,3.42*15
$GNRMC,090109.50,A,5023.62156,N,03028.89147,E,2.518,,080523,,,A*60
$GNGGA,090109.50,5023.62156,N,03028.89147,E,1,05,6.17,137.4,M,25.8,M,,*45
$GNGSA,M,3,05,20,,,,,,,,,,,7.05,6.17,3.42*10
$GNGSA,M,3,81,82,66,,,,,,,,,,7.05,6.17,3.42*14
$GNRMC,090110.00,A,5023.62187,N,03028.89250,E,1.732,,080523,,,A*6D
$GNGGA,090110.00,5023.62187,N,03028.89250,E,1,05,6.17,137.9,M,25.8,M,,*4C
$GNGSA,M,3,05,20,,,,,,,,,,,7.05,6.17,3.42*10
$GNGSA,M,3,81,82,66,,,,,,,,,,7.05,6.17,3.42*14
$GNRMC,090110.50,A,5023.62223,N,03028.89359,E,2.979,,080523,,,A*6F
$GNGGA,090110.50,5023.62223,N,03028.89359,E,1,05,6.17,138.4,M,25.8,M,,*4E
$GNGSA,M,3,05,20,,,,,,,,,,,7.05,6.17,3.42*10
$GNGSA,M,3,81,82,66,,,,,,,,,,7.05,6.17,3.42*14
$GNRMC,090111.00,A,5023.62255,N,03028.89461,E,3.238,,080523,,,A*69
$GNGGA,090111.00,5023.62255,N,03028.89461,E,1,05,6.17,138.9,M,25.8,M,,*4A
$GNGSA,M,3,05,20,,,,,,,,,,,7.05,6.17,3.42*10
$GNGSA,M,3,81,82,66,,,,,,,,,,7.05,6.17,3.42*14
$GNRMC,090111.50,A,5023.62286,N,03028.89559,E,3.703,,080523,,,A*65
$GNGGA,090111.50,5023.62286,N,03028.89559,E,1,05,6.17,139.5,M,25.8,M,,*46
$GNGSA,M,3,05,20,,,,,,,,,,,7.05,6.17,3.42*10
$GNGSA,M,3,81,82,66,,,,,,,,,,7.05,6.17,3.42*14
$GNRMC,090112.00,A,5023.62287,N,03028.89576,E,4.365,,080523,,,A*6C
$GNGGA,090112.00,5023.62287,N,03028.89576,E,1,05,6.17,139.3,M,25.8,M,,*4A
$GNGSA,M,3,05,20,,,,,,,,,,,7.05,6.17,3.42*10
$GNGSA,M,3,81,82,66,,,,,,,,,,7.05,6.17,3.42*14
$GNRMC,090112.50,A,5023.62290,N,03028.89639,E,2.925,,080523,,,A*6F
$GNGGA,090112.50,5023.62290,N,03028.89639,E,1,05,6.17,139.5,M,25.8,M,,*47
$GNGSA,M,3,05,20,,,,,,,,,,,7.05,6.17,3.42*10
$GNGSA,M,3,81,82,66,,,,,,,,,,7.05,6.17,3.42*14
$GNRMC,090113.00,A,5023.62299,N,03028.89707,E,3.149,,080523,,,A*6D
$GNGGA,090113.00,5023.62299,N,03028.89707,E,1,05,6.17,139.9,M,25.8,M,,*4A
$GNGSA,M,3,05,20,,,,,,,,,,,7.05,6.17,3.42*10
$GNGSA,M,3,81,82,66,,,,,,,,,,7.05,6.17,3.42*14
$GNRMC,090113.50,A,5023.62325,N,03028.89811,E,3.064,,080523,,,A*68
$GNGGA,090113.50,5023.62325,N,03028.89811,E,1,05,6.17,140.5,M,25.8,M,,*43
$GNGSA,M,3,05,20,,,,,,,,,,,7.05,6.17,3.42*10
$GNGSA,M,3,81,82,66,,,,,,,,,,7.05,6.17,3.42*14
$GNRMC,090114.00,A,5023.62349,N,03028.89910,E,2.125,,080523,,,A*65
$GNGGA,090114.00,5023.62349,N,03028.89910,E,1,05,6.17,141.2,M,25.8,M,,*4D
$GNGSA,M,3,05,20,,,,,,,,,,,7.06,6.17,3.42*13
$GNGSA,M,3,81,82,66,,,,,,,,,,7.06,6.17,3.42*17
$GNRMC,090114.50,A,5023.62379,N,03028.90021,E,2.836,,080523,,,A*6B
$GNGGA,090114.50,5023.62379,N,03028.90021,E,1,05,6.17,142.1,M,25.8,M,,*48
$GNGSA,M,3,05,20,,,,,,,,,,,7.06,6.17,3.42*13
$GNGSA,M,3,81,82,66,,,,,,,,,,7.06,6.17,3.42*17
$GNRMC,090115.00,A,5023.62411,N,03028.90145,E,3.124,,080523,,,A*6E
$GNGGA,090115.00,5023.62411,N,03028.90145,E,1,05,6.17,142.9,M,25.8,M,,*4E
$GNGSA,M,3,05,20,,,,,,,,,,,7.06,6.17,3.42*13
$GNGSA,M,3,81,82,66,,,,,,,,,,7.06,6.17,3.42*17
$GNRMC,090115.50,A,5023.62448,N,03028.90295,E,3.302,121.58,080523,,,A*7E
$GNGGA,090115.50,5023.62448,N,03028.90295,E,1,05,6.17,144.0,M,25.8,M,,*46
$GNGSA,M,3,05,20,,,,,,,,,,,7.06,6.17,3.42*13
$GNGSA,M,3,81,82,66,,,,,,,,,,7.06,6.17,3.42*17
$GNRMC,090116.00,A,5023.62473,N,03028.90404,E,3.493,96.58,080523,,,A*4C
$GNGGA,090116.00,5023.62473,N,03028.90404,E,1,05,6.17,144.7,M,25.8,M,,*41
$GNGSA,M,3,05,20,,,,,,,,,,,7.06,6.17,3.42*13
$GNGSA,M,3,81,82,66,,,,,,,,,,7.06,6.17,3.42*17
$GNRMC,090116.50,A,5023.62491,N,03028.90534,E,3.293,,080523,,,A*6D
$GNGGA,090116.50,5023.62491,N,03028.90534,E,1,05,6.17,145.5,M,25.8,M,,*49
$GNGSA,M,3,05,20,,,,,,,,,,,7.06,6.17,3.42*13
$GNGSA,M,3,81,82,66,,,,,,,,,,7.06,6.17,3.42*17
$GNRMC,090117.00,A,5023.62515,N,03028.90677,E,3.107,,080523,,,A*6E
$GNGGA,090117.00,5023.62515,N,03028.90677,E,1,05,6.18,146.5,M,25.8,M,,*48
$GNGSA,M,3,05,20,,,,,,,,,,,7.06,6.18,3.42*1C
$GNGSA,M,3,81,82,66,,,,,,,,,,7.06,6.18,3.42*18
$GNRMC,090117.50,A,5023.62563,N,03028.90837,E,2.878,,080523,,,A*60
$GNGGA,090117.50,5023.62563,N,03028.90837,E,1,05,6.18,147.6,M,25.8,M,,*44
$GNGSA,M,3,05,20,,,,,,,,,,,7.06,6.18,3.42*1C
$GNGSA,M,3,81,82,66,,,,,,,,,,7.06,6.18,3.42*18
$GNRMC,090118.00,A,5023.62585,N,03028.90911,E,2.793,,080523,,,A*6D
$GNGGA,090118.00,5023.62585,N,03028.90911,E,1,05,6.18,148.0,M,25.8,M,,*4A
$GNGSA,M,3,05,20,,,,,,,,,,,7.06,6.18,3.42*1C
$GNGSA,M,3,81,82,66,,,,,,,,,,7.06,6.18,3.42*18
$GNRMC,090118.50,A,5023.62612,N,03028.91031,E,2.953,,080523,,,A*6D
$GNGGA,090118.50,5023.62612,N,03028.91031,E,1,05,6.18,149.0,M,25.8,M,,*49
$GNGSA,M,3,05,20,,,,,,,,,,,7.06,6.18,3.42*1C
$GNGSA,M,3,81,82,66,,,,,,,,,,7.06,6.18,3.42*18
$GNRMC,090119.00,A,5023.62612,N,03028.91092,E,3.499,,080523,,,A*6A
$GNGGA,090119.00,5023.62612,N,03028.91092,E,1,05,6.18,149.3,M,25.8,M,,*47
$GNGSA,M,3,05,20,,,,,,,,,,,7.06,6.18,3.42*1C
$GNGSA,M,3,81,82,66,,,,,,,,,,7.06,6.18,3.42*18
$GNRMC,090119.50,A,5023.62617,N,03028.91169,E,3.203,,080523,,,A*6A
$GNGGA,090119.50,5023.62617,N,03028.91169,E,1,05,6.18,149.8,M,25.8,M,,*49
$GNGSA,M,3,05,20,,,,,,,,,,,7.06,6.18,3.42*1C
$GNGSA,M,3,81,82,66,,,,,,,,,,7.06,6.18,3.42*18
$GNRMC,090120.00,A,5023.62634,N,03028.91265,E,3.045,,080523,,,A*6B
$GNGGA,090120.00,5023.62634,N,03028.91265,E,1,05,6.18,150.5,M,25.8,M,,*4D
$GNGSA,M,3,05,20,,,,,,,,,,,7.06,6.18,3.42*1C
$GNGSA,M,3,81,82,66,,,,,,,,,,7.06,6.18,3.42*18
$GNRMC,090120.50,A,5023.62665,N,03028.91380,E,2.963,,080523,,,A*6C
$GNGGA,090120.50,5023.62665,N,03028.91380,E,1,05,6.18,151.4,M,25.8,M,,*46
$GNGSA,M,3,05,20,,,,,,,,,,,7.06,6.18,3.42*1C
$GNGSA,M,3,81,82,66,,,,,,,,,,7.06,6.18,3.42*18
$GNRMC,090121.00,A,5023.62702,N,03028.91536,E,3.147,,080523,,,A*6C
$GNGGA,090121.00,5023.62702,N,03028.91536,E,1,05,6.18,152.7,M,25.8,M,,*49
$GNGSA,M,3,05,20,,,,,,,,,,,7.06,6.18,3.42*1C
$GNGSA,M,3,81,82,66,,,,,,,,,,7.06,6.18,3.42*18
$GNRMC,090121.50,A,5023.62749,N,03028.91697,E,3.615,,080523,,,A*6E
$GNGGA,090121.50,5023.62749,N,03028.91697,E,1,05,6.18,153.9,M,25.8,M,,*44
$GNGSA,M,3,05,20,,,,,,,,,,,7.06,6.18,3.42*1C
$GNGSA,M,3,81,82,66,,,,,,,,,,7.06,6.18,3.42*18
$GNRMC,090122.00,A,5023.62800,N,03028.91844,E,3.928,,080523,,,A*6B
$GNGGA,090122.00,5023.62800,N,03028.91844,E,1,05,6.18,155.1,M,25.8,M,,*4E
$GNGSA,M,3,05,20,,,,,,,,,,,7.06,6.18,3.42*1C
$GNGSA,M,3,81,82,66,,,,,,,,,,7.06,6.18,3.42*18
$GNRMC,090122.50,A,5023.62834,N,03028.91948,E,3.822,,080523,,,A*6F
$GNGGA,090122.50,5023.62834,N,03028.91948,E,1,05,6.18,155.9,M,25.8,M,,*49
$GNGSA,M,3,05,20,,,,,,,,,,,7.06,6.18,3.42*1C
$GNGSA,M,3,81,82,66,,,,,,,,,,7.06,6.18,3.42*18
$GNRMC,090123.00,A,5023.62876,N,03028.92072,E,4.405,,080523,,,A*60
$GNGGA,090123.00,5023.62876,N,03028.92072,E,1,05,6.18,156.9,M,25.8,M,,*4B
$GNGSA,M,3,05,20,,,,,,,,,,,7.07,6.18,3.42*1D
$GNGSA,M,3,81,82,66,,,,,,,,,,7.07,6.18,3.42*19
$GNRMC,090123.50,A,5023.62914,N,03028.92179,E,4.419,,080523,,,A*67
$GNGGA,090123.50,5023.62914,N,03028.92179,E,1,05,6.18,157.9,M,25.8,M,,*40
$GNGSA,M,3,05,20,,,,,,,,,,,7.07,6.18,3.42*1D
$GNGSA,M,3,81,82,66,,,,,,,,,,7.07,6.18,3.42*19
$GNRMC,090124.00,A,5023.62950,N,03028.92247,E,4.494,,080523,,,A*6E
$GNGGA,090124.00,5023.62950,N,03028.92247,E,1,04,6.26,158.4,M,25.8,M,,*42
$GNGSA,M,3,05,20,,,,,,,,,,,7.34,6.26,3.83*1D
$GNGSA,M,3,82,66,,,,,,,,,,,7.34,6.26,3.83*10
$GNRMC,090124.50,A,5023.62981,N,03028.92304,E,4.879,,080523,,,A*6E
$GNGGA,090124.50,5023.62981,N,03028.92304,E,1,04,6.26,158.8,M,25.8,M,,*41
$GNGSA,M,3,05,20,,,,,,,,,,,7.34,6.26,3.83*1D
$GNGSA,M,3,82,66,,,,,,,,,,,7.34,6.26,3.83*10
$GNRMC,090125.00,A,5023.63015,N,03028.92369,E,5.200,79.65,080523,,,A*42
$GNGGA,090125.00,5023.63015,N,03028.92369,E,1,04,6.26,159.2,M,25.8,M,,*40
$GNGSA,M,3,05,20,,,,,,,,,,,7.34,6.26,3.83*1D
$GNGSA,M,3,82,66,,,,,,,,,,,7.34,6.26,3.83*10
$GNRMC,090125.50,A,5023.63063,N,03028.92473,E,5.409,70.07,080523,,,A*48
$GNGGA,090125.50,5023.63063,N,03028.92473,E,1,04,6.26,159.9,M,25.8,M,,*43
$GNGSA,M,3,05,20,,,,,,,,,,,7.34,6.26,3.83*1D
$GNGSA,M,3,82,66,,,,,,,,,,,7.34,6.26,3.83*10
$GNRMC,090126.00,A,5023.63112,N,03028.92563,E,5.644,65.99,080523,,,A*41
$GNGGA,090126.00,5023.63112,N,03028.92563,E,1,04,6.26,160.4,M,25.8,M,,*45
$GNGSA,M,3,05,20,,,,,,,,,,,7.34,6.26,3.83*1D
$GNGSA,M,3,82,66,,,,,,,,,,,7.34,6.26,3.83*10
$GNRMC,090126.50,A,5023.63140,N,03028.92613,E,5.457,68.80,080523,,,A*42
$GNGGA,090126.50,5023.63140,N,03028.92613,E,1,04,6.26,160.7,M,25.8,M,,*40
$GNGSA,M,3,05,20,,,,,,,,,,,7.34,6.26,3.83*1D
$GNGSA,M,3,82,66,,,,,,,,,,,7.34,6.26,3.83*10
$GNRMC,090127.00,A,5023.63167,N,03028.92672,E,5.648,68.44,080523,,,A*40
$GNGGA,090127.00,5023.63167,N,03028.92672,E,1,04,6.26,161.0,M,25.8,M,,*40
$GNGSA,M,3,05,20,,,,,,,,,,,7.34,6.26,3.83*1D
$GNGSA,M,3,82,66,,,,,,,,,,,7.34,6.26,3.83*10
$GNRMC,090127.50,A,5023.63198,N,03028.92739,E,5.393,67.98,080523,,,A*46
$GNGGA,090127.50,5023.63198,N,03028.92739,E,1,04,6.26,161.5,M,25.8,M,,*4E
$GNGSA,M,3,05,20,,,,,,,,,,,7.34,6.26,3.83*1D
$GNGSA,M,3,82,66,,,,,,,,,,,7.34,6.26,3.83*10
$GNRMC,090128.00,A,5023.63227,N,03028.92775,E,5.423,67.94,080523,,,A*43
$GNGGA,090128.00,5023.63227,N,03028.92775,E,1,04,6.26,161.8,M,25.8,M,,*46
$GNGSA,M,3,05,20,,,,,,,,,,,7.34,6.26,3.83*1D
$GNGSA,M,3,82,66,,,,,,,,,,,7.34,6.26,3.83*10
$GNRMC,090128.50,A,5023.63278,N,03028.92849,E,5.317,63.15,080523,,,A*41
$GNGGA,090128.50,5023.63278,N,03028.92849,E,1,04,6.26,162.4,M,25.8,M,,*46
$GNGSA,M,3,05,20,,,,,,,,,,,7.34,6.26,3.83*1D
$GNGSA,M,3,82,66,,,,,,,,,,,7.34,6.26,3.83*10
$GNRMC,090129.00,A,5023.63317,N,03028.92870,E,5.188,67.19,080523,,,A*4B
$GNGGA,090129.00,5023.63317,N,03028.92870,E,1,04,6.26,162.7,M,25.8,M,,*43
$GNGSA,M,3,05,20,,,,,,,,,,,7.34,6.26,3.83*1D
$GNGSA,M,3,82,66,,,,,,,,,,,7.34,6.26,3.83*10
$GNRMC,090129.50,A,5023.63356,N,03028.92904,E,5.455,66.88,080523,,,A*45
$GNGGA,090129.50,5023.63356,N,03028.92904,E,1,04,6.26,163.0,M,25.8,M,,*47
$GNGSA,M,3,05,20,,,,,,,,,,,7.34,6.26,3.83*1D
$GNGSA,M,3,82,66,,,,,,,,,,,7.34,6.26,3.83*10
$GNRMC,090130.00,A,5023.63390,N,03028.92925,E,5.587,68.19,080523,,,A*49
$GNGGA,090130.00,5023.63390,N,03028.92925,E,1,04,6.27,163.1,M,25.8,M,,*43
$GNGSA,M,3,05,20,,,,,,,,,,,7.34,6.27,3.83*1C
$GNGSA,M,3,82,66,,,,,,,,,,,7.34,6.27,3.83*11
$GNRMC,090130.50,A,5023.63428,N,03028.92977,E,5.380,65.84,080523,,,A*47
$GNGGA,090130.50,5023.63428,N,03028.92977,E,1,04,6.27,163.5,M,25.8,M,,*41
$GNGSA,M,3,05,20,,,,,,,,,,,7.34,6.27,3.83*1C
$GNGSA,M,3,82,66,,,,,,,,,,,7.34,6.27,3.83*11
$GNRMC,090131.00,A,5023.63456,N,03028.93005,E,5.664,66.88,080523,,,A*47
$GNGGA,090131.00,5023.63456,N,03028.93005,E,1,04,6.27,163.7,M,25.8,M,,*43
$GNGSA,M,3,05,20,,,,,,,,,,,7.34,6.27,3.83*1C
$GNGSA,M,3,82,66,,,,,,,,,,,7.34,6.27,3.83*11
$GNRMC,090131.50,A,5023.63505,N,03028.93107,E,5.740,66.13,080523,,,A*43
$GNGGA,090131.50,5023.63505,N,03028.93107,E,1,04,6.27,164.7,M,25.8,M,,*45
$GNGSA,M,3,05,20,,,,,,,,,,,7.34,6.27,3.83*1C
$GNGSA,M,3,82,66,,,,,,,,,,,7.34,6.27,3.83*11
$GNRMC,090132.00,A,5023.63567,N,03028.93248,E,5.919,61.79,080523,,,A*40
$GNGGA,090132.00,5023.63567,N,03028.93248,E,1,04,6.27,165.9,M,25.8,M,,*40
$GNGSA,M,3,05,20,,,,,,,,,,,7.34,6.27,3.83*1C
$GNGSA,M,3,82,66,,,,,,,,,,,7.34,6.27,3.83*11
$GNRMC,090132.50,A,5023.64112,N,03028.95308,E,7.240,41.86,080523,,,A*40
$GNGGA,090132.50,5023.64112,N,03028.95308,E,1,05,2.53,182.3,M,25.8,M,,*42
$GNGSA,M,3,05,20,,,,,,,,,,,3.25,2.53,2.05*10
$GNGSA,M,3,82,65,66,,,,,,,,,,3.25,2.53,2.05*1E
$GNRMC,090133.00,A,5023.64360,N,03028.96107,E,7.223,38.05,080523,,,A*4D
$GNGGA,090133.00,5023.64360,N,03028.96107,E,1,05,2.53,188.8,M,25.8,M,,*4E
$GNGSA,M,3,05,20,,,,,,,,,,,3.25,2.53,2.05*10
$GNGSA,M,3,82,65,66,,,,,,,,,,3.25,2.53,2.05*1E
$GNRMC,090133.50,A,5023.64505,N,03028.96499,E,6.873,36.65,080523,,,A*49
$GNGGA,090133.50,5023.64505,N,03028.96499,E,1,05,2.53,192.0,M,25.8,M,,*4F
$GNGSA,M,3,05,20,,,,,,,,,,,3.25,2.53,2.05*10
$GNGSA,M,3,82,65,66,,,,,,,,,,3.25,2.53,2.05*1E
$GNRMC,090134.00,A,5023.64600,N,03028.96731,E,6.481,37.31,080523,,,A*4D
$GNGGA,090134.00,5023.64600,N,03028.96731,E,1,05,2.53,194.0,M,25.8,M,,*4C
$GNGSA,M,3,05,20,,,,,,,,,,,3.25,2.53,2.05*10
$GNGSA,M,3,82,65,66,,,,,,,,,,3.25,2.53,2.05*1E
$GNRMC,090134.50,A,5023.64664,N,03028.96855,E,6.153,35.29,080523,,,A*46
$GNGGA,090134.50,5023.64664,N,03028.96855,E,1,05,2.53,194.9,M,25.8,M,,*4F
$GNGSA,M,3,05,20,,,,,,,,,,,3.25,2.53,2.05*10
$GNGSA,M,3,82,65,66,,,,,,,,,,3.25,2.53,2.05*1E
$GNRMC,090135.00,A,5023.64759,N,03028.97057,E,6.318,35.31,080523,,,A*42
$GNGGA,090135.00,5023.64759,N,03028.97057,E,1,05,2.53,196.4,M,25.8,M,,*40
$GNGSA,M,3,05,20,,,,,,,,,,,3.25,2.53,2.05*10
$GNGSA,M,3,82,65,66,,,,,,,,,,3.25,2.53,2.05*1E
$GNRMC,090135.50,A,5023.64848,N,03028.97239,E,5.725,34.79,080523,,,A*46
$GNGGA,090135.50,5023.64848,N,03028.97239,E,1,05,2.53,197.6,M,25.8,M,,*43
$GNGSA,M,3,05,20,,,,,,,,,,,3.25,2.53,2.05*10
$GNGSA,M,3,82,65,66,,,,,,,,,,3.25,2.53,2.05*1E
$GNRMC,090136.00,A,5023.64967,N,03028.97489,E,5.734,30.37,080523,,,A*4F
$GNGGA,090136.00,5023.64967,N,03028.97489,E,1,05,2.53,199.6,M,25.8,M,,*4A
$GNGSA,M,3,05,20,,,,,,,,,,,3.25,2.53,2.05*10
$GNGSA,M,3,82,65,66,,,,,,,,,,3.25,2.53,2.05*1E
$GNRMC,090136.50,A,5023.65090,N,03028.97745,E,5.699,27.47,080523,,,A*4E
$GNGGA,090136.50,5023.65090,N,03028.97745,E,1,05,2.53,201.6,M,25.8,M,,*4E
$GNGSA,M,3,05,20,,,,,,,,,,,3.25,2.53,2.05*10
$GNGSA,M,3,82,65,66,,,,,,,,,,3.25,2.53,2.05*1E
$GNRMC,090137.00,A,5023.65225,N,03028.98049,E,5.877,26.66,080523,,,A*4E
$GNGGA,090137.00,5023.65225,N,03028.98049,E,1,05,2.53,204.2,M,25.8,M,,*43
$GNGSA,M,3,05,20,,,,,,,,,,,3.25,2.53,2.05*10
$GNGSA,M,3,82,65,66,,,,,,,,,,3.25,2.53,2.05*1E
$GNRMC,090137.50,A,5023.65364,N,03028.98377,E,6.302,26.35,080523,,,A*4D
$GNGGA,090137.50,5023.65364,N,03028.98377,E,1,05,2.53,207.1,M,25.8,M,,*4C
$GNGSA,M,3,05,20,,,,,,,,,,,3.26,2.53,2.05*13
$GNGSA,M,3,82,65,66,,,,,,,,,,3.26,2.53,2.05*1D
$GNRMC,090138.00,A,5023.65496,N,03028.98655,E,6.311,24.27,080523,,,A*4B
$GNGGA,090138.00,5023.65496,N,03028.98655,E,1,05,2.53,209.6,M,25.8,M,,*40
$GNGSA,M,3,05,20,,,,,,,,,,,3.26,2.53,2.05*13
$GNGSA,M,3,82,65,66,,,,,,,,,,3.26,2.53,2.05*1D
$GNRMC,090138.50,A,5023.65616,N,03028.98952,E,6.108,21.50,080523,,,A*43
$GNGGA,090138.50,5023.65616,N,03028.98952,E,1,04,4.32,212.5,M,25.8,M,,*4E
$GNGSA,M,3,20,,,,,,,,,,,,5.16,4.32,2.81*1E
$GNGSA,M,3,82,65,66,,,,,,,,,,5.16,4.32,2.81*15
$GNRMC,090139.00,A,5023.65718,N,03028.99148,E,6.458,20.19,080523,,,A*46
$GNGGA,090139.00,5023.65718,N,03028.99148,E,1,04,4.32,214.6,M,25.8,M,,*42
$GNGSA,M,3,20,,,,,,,,,,,,5.16,4.32,2.81*1E
$GNGSA,M,3,82,65,66,,,,,,,,,,5.16,4.32,2.81*15
$GNRMC,090139.50,A,5023.65783,N,03028.99218,E,5.645,,080523,,,A*6E
$GNGGA,090139.50,5023.65783,N,03028.99218,E,1,04,4.32,215.6,M,25.8,M,,*42
$GNGSA,M,3,20,,,,,,,,,,,,5.16,4.32,2.81*1E
$GNGSA,M,3,82,65,66,,,,,,,,,,5.16,4.32,2.81*15
$GNRMC,090140.00,A,5023.65822,N,03028.99291,E,5.785,,080523,,,A*6D
$GNGGA,090140.00,5023.65822,N,03028.99291,E,1,04,4.32,216.5,M,25.8,M,,*4C
$GNGSA,M,3,20,,,,,,,,,,,,5.16,4.32,2.81*1E
$GNGSA,M,3,82,65,66,,,,,,,,,,5.16,4.32,2.81*15
$GNRMC,090140.50,A,5023.65884,N,03028.99373,E,6.357,23.01,080523,,,A*4F
$GNGGA,090140.50,5023.65884,N,03028.99373,E,1,05,3.87,217.8,M,25.8,M,,*4C
$GNGSA,M,3,11,20,,,,,,,,,,,4.63,3.87,2.55*1D
$GNGSA,M,3,82,65,66,,,,,,,,,,4.63,3.87,2.55*16
$GNRMC,090141.00,A,5023.65925,N,03028.99462,E,6.573,26.42,080523,,,A*44
$GNGGA,090141.00,5023.65925,N,03028.99462,E,1,05,3.87,219.0,M,25.8,M,,*43
$GNGSA,M,3,11,20,,,,,,,,,,,4.63,3.87,2.55*1D
$GNGSA,M,3,82,65,66,,,,,,,,,,4.63,3.87,2.55*16
$GNRMC,090141.50,A,5023.65980,N,03028.99591,E,6.726,27.50,080523,,,A*43
$GNGGA,090141.50,5023.65980,N,03028.99591,E,1,05,3.87,220.2,M,25.8,M,,*4C
$GNGSA,M,3,11,20,,,,,,,,,,,4.63,3.87,2.55*1D
$GNGSA,M,3,82,65,66,,,,,,,,,,4.63,3.87,2.55*16
$GNRMC,090142.00,A,5023.66008,N,03028.99655,E,6.598,31.38,080523,,,A*4A
$GNGGA,090142.00,5023.66008,N,03028.99655,E,1,05,3.87,221.3,M,25.8,M,,*4B
$GNGSA,M,3,11,20,,,,,,,,,,,4.63,3.87,2.55*1D
$GNGSA,M,3,82,65,66,,,,,,,,,,4.63,3.87,2.55*16
$GNRMC,090142.50,A,5023.66029,N,03028.99834,E,7.449,29.79,080523,,,A*45
$GNGGA,090142.50,5023.66029,N,03028.99834,E,1,05,3.87,223.3,M,25.8,M,,*46
$GNGSA,M,3,11,20,,,,,,,,,,,4.63,3.87,2.55*1D
$GNGSA,M,3,82,65,66,,,,,,,,,,4.63,3.87,2.55*16
$GNRMC,090143.00,A,5023.66060,N,03028.99978,E,6.529,26.94,080523,,,A*4F
$GNGGA,090143.00,5023.66060,N,03028.99978,E,1,05,3.87,224.9,M,25.8,M,,*4B
$GNGSA,M,3,11,20,,,,,,,,,,,4.63,3.87,2.55*1D
$GNGSA,M,3,82,65,66,,,,,,,,,,4.63,3.87,2.55*16
$GNRMC,090143.50,A,5023.66121,N,03029.00098,E,6.370,22.62,080523,,,A*4F
$GNGGA,090143.50,5023.66121,N,03029.00098,E,1,05,3.87,226.0,M,25.8,M,,*47
$GNGSA,M,3,11,20,,,,,,,,,,,4.63,3.87,2.55*1D
$GNGSA,M,3,82,65,66,,,,,,,,,,4.63,3.87,2.55*16
$GNRMC,090144.00,A,5023.66205,N,03029.00250,E,6.267,22.18,080523,,,A*44
$GNGGA,090144.00,5023.66205,N,03029.00250,E,1,06,2.34,226.8,M,25.8,M,,*44
$GNGSA,M,3,05,11,20,,,,,,,,,,3.05,2.34,1.95*19
$GNGSA,M,3,82,65,66,,,,,,,,,,3.05,2.34,1.95*17
$GNRMC,090144.50,A,5023.66275,N,03029.00365,E,5.863,22.42,080523,,,A*43
$GNGGA,090144.50,5023.66275,N,03029.00365,E,1,05,2.53,227.7,M,25.8,M,,*4D
$GNGSA,M,3,05,20,,,,,,,,,,,3.26,2.53,2.06*10
$GNGSA,M,3,82,65,66,,,,,,,,,,3.26,2.53,2.06*1E
$GNRMC,090145.00,A,5023.66345,N,03029.00496,E,6.398,23.77,080523,,,A*45
$GNGGA,090145.00,5023.66345,N,03029.00496,E,1,05,2.53,228.8,M,25.8,M,,*40
$GNGSA,M,3,05,20,,,,,,,,,,,3.26,2.53,2.06*10
$GNGSA,M,3,82,65,66,,,,,,,,,,3.26,2.53,2.06*1E
$GNRMC,090145.50,A,5023.66419,N,03029.00622,E,6.103,22.21,080523,,,A*41
$GNGGA,090145.50,5023.66419,N,03029.00622,E,1,05,2.53,229.9,M,25.8,M,,*46
$GNGSA,M,3,05,20,,,,,,,,,,,3.26,2.53,2.06*10
$GNGSA,M,3,82,65,66,,,,,,,,,,3.26,2.53,2.06*1E
$GNRMC,090146.00,A,5023.66463,N,03029.00773,E,6.612,20.56,080523,,,A*4A
$GNGGA,090146.00,5023.66463,N,03029.00773,E,1,04,4.32,230.6,M,25.8,M,,*4F
$GNGSA,M,3,20,,,,,,,,,,,,5.15,4.32,2.81*1D
$GNGSA,M,3,82,65,66,,,,,,,,,,5.15,4.32,2.81*16
$GNRMC,090146.50,V,,,,,,,080523,,,N*60
$GNGGA,090146.50,,,,,0,00,99.99,,,,,,*77
$GNGSA,M,1,,,,,,,,,,,,,99.99,99.99,99.99*22
$GNGSA,M,1,,,,,,,,,,,,,99.99,99.99,99.99*22
$GNRMC,090147.00,V,,,,,,,080523,,,N*64
$GNGGA,090147.00,,,,,0,00,99.99,,,,,,*73
$GNGSA,M,1,,,,,,,,,,,,,99.99,99.99,99.99*22
$GNGSA,M,1,,,,,,,,,,,,,99.99,99.99,99.99*22
$GNRMC,090147.50,V,,,,,,,080523,,,N*61
$GNGGA,090147.50,,,,,0,00,99.99,,,,,,*76
$GNGSA,M,1,,,,,,,,,,,,,99.99,99.99,99.99*22
$GNGSA,M,1,,,,,,,,,,,,,99.99,99.99,99.99*22
$GNRMC,090148.00,V,,,,,,,080523,,,N*6B
$GNGGA,090148.00,,,,,0,00,99.99,,,,,,*7C
$GNGSA,M,1,,,,,,,,,,,,,99.99,99.99,99.99*22
$GNGSA,M,1,,,,,,,,,,,,,99.99,99.99,99.99*22
$GNRMC,090148.50,V,,,,,,,080523,,,N*6E
$GNGGA,090148.50,,,,,0,00,99.99,,,,,,*79
$GNGSA,M,1,,,,,,,,,,,,,99.99,99.99,99.99*22
$GNGSA,M,1,,,,,,,,,,,,,99.99,99.99,99.99*22
$GNRMC,090149.00,V,,,,,,,080523,,,N*6A
$GNGGA,090149.00,,,,,0,00,99.99,,,,,,*7D
$GNGSA,M,1,,,,,,,,,,,,,99.99,99.99,99.99*22
$GNGSA,M,1,,,,,,,,,,,,,99.99,99.99,99.99*22
$GNRMC,090149.50,V,,,,,,,080523,,,N*6F
$GNGGA,090149.50,,,,,0,00,99.99,,,,,,*78
$GNGSA,M,1,,,,,,,,,,,,,99.99,99.99,99.99*22
$GNGSA,M,1,,,,,,,,,,,,,99.99,99.99,99.99*22
$GNRMC,090150.00,A,5023.67689,N,03029.01879,E,5.766,24.54,080523,,,A*49
$GNGGA,090150.00,5023.67689,N,03029.01879,E,1,05,2.53,242.0,M,25.8,M,,*48
$GNGSA,M,3,05,20,,,,,,,,,,,3.26,2.53,2.06*10
$GNGSA,M,3,82,65,66,,,,,,,,,,3.26,2.53,2.06*1E
$GNRMC,090150.50,A,5023.67696,N,03029.01915,E,5.676,23.68,080523,,,A*41
$GNGGA,090150.50,5023.67696,N,03029.01915,E,1,05,2.53,242.7,M,25.8,M,,*4F
$GNGSA,M,3,05,20,,,,,,,,,,,3.26,2.53,2.06*10
$GNGSA,M,3,82,65,66,,,,,,,,,,3.26,2.53,2.06*1E
$GNRMC,090151.00,A,5023.67709,N,03029.01906,E,5.890,24.81,080523,,,A*46
$GNGGA,090151.00,5023.67709,N,03029.01906,E,1,05,2.53,243.1,M,25.8,M,,*49
$GNGSA,M,3,05,20,,,,,,,,,,,3.26,2.53,2.06*10
$GNGSA,M,3,82,65,66,,,,,,,,,,3.26,2.53,2.06*1E
$GNRMC,090151.50,A,5023.67750,N,03029.01936,E,5.286,25.91,080523,,,A*41
$GNGGA,090151.50,5023.67750,N,03029.01936,E,1,05,2.53,242.8,M,25.8,M,,*4B
$GNGSA,M,3,05,20,,,,,,,,,,,3.26,2.53,2.06*10
$GNGSA,M,3,82,65,66,,,,,,,,,,3.26,2.53,2.06*1E
$GNRMC,090152.00,A,5023.67746,N,03029.01959,E,4.877,24.57,080523,,,A*47
$GNGGA,090152.00,5023.67746,N,03029.01959,E,1,05,2.53,242.4,M,25.8,M,,*4F
$GNGSA,M,3,05,20,,,,,,,,,,,3.26,2.53,2.06*10
$GNGSA,M,3,82,65,66,,,,,,,,,,3.26,2.53,2.06*1E
$GNRMC,090152.50,A,5023.67654,N,03029.01929,E,4.567,22.68,080523,,,A*41
$GNGGA,090152.50,5023.67654,N,03029.01929,E,1,05,2.53,241.0,M,25.8,M,,*48
$GNGSA,M,3,05,20,,,,,,,,,,,3.26,2.53,2.06*10
$GNGSA,M,3,82,65,66,,,,,,,,,,3.26,2.53,2.06*1E
$GNRMC,090153.00,A,5023.67725,N,03029.01881,E,4.744,23.26,080523,,,A*49
$GNGGA,090153.00,5023.67725,N,03029.01881,E,1,05,2.53,241.2,M,25.8,M,,*4A
$GNGSA,M,3,05,20,,,,,,,,,,,3.26,2.53,2.06*10
$GNGSA,M,3,82,65,66,,,,,,,,,,3.26,2.53,2.06*1E
$GNRMC,090153.50,A,5023.67760,N,03029.01808,E,4.888,24.29,080523,,,A*4B
$GNGGA,090153.50,5023.67760,N,03029.01808,E,1,05,2.53,241.0,M,25.8,M,,*4D
$GNGSA,M,3,05,20,,,,,,,,,,,3.26,2.53,2.06*10
$GNGSA,M,3,82,65,66,,,,,,,,,,3.26,2.53,2.06*1E
$GNRMC,090154.00,A,5023.67810,N,03029.01820,E,4.776,24.80,080523,,,A*46
$GNGGA,090154.00,5023.67810,N,03029.01820,E,1,06,2.34,241.2,M,25.8,M,,*4D
$GNGSA,M,3,05,11,20,,,,,,,,,,3.05,2.34,1.96*1A
$GNGSA,M,3,82,65,66,,,,,,,,,,3.05,2.34,1.96*14
$GNRMC,090154.50,A,5023.67894,N,03029.01973,E,4.895,21.87,080523,,,A*48
$GNGGA,090154.50,5023.67894,N,03029.01973,E,1,06,2.34,240.7,M,25.8,M,,*47
$GNGSA,M,3,05,11,20,,,,,,,,,,3.05,2.34,1.96*1A
$GNGSA,M,3,82,65,66,,,,,,,,,,3.05,2.34,1.96*14
$GNRMC,090155.00,A,5023.67934,N,03029.02186,E,4.654,23.87,080523,,,A*47
$GNGGA,090155.00,5023.67934,N,03029.02186,E,1,06,2.34,239.4,M,25.8,M,,*44
$GNGSA,M,3,05,11,20,,,,,,,,,,3.05,2.34,1.96*1A
$GNGSA,M,3,82,65,66,,,,,,,,,,3.05,2.34,1.96*14
$GNRMC,090155.50,A,5023.67830,N,03029.02389,E,3.877,28.51,080523,,,A*42
$GNGGA,090155.50,5023.67830,N,03029.02389,E,1,06,2.34,237.0,M,25.8,M,,*43
$GNGSA,M,3,05,11,20,,,,,,,,,,3.05,2.34,1.96*1A
$GNGSA,M,3,82,65,66,,,,,,,,,,3.05,2.34,1.96*14
$GNRMC,090156.00,A,5023.67967,N,03029.02799,E,3.981,21.96,080523,,,A*48
$GNGGA,090156.00,5023.67967,N,03029.02799,E,1,06,2.34,236.8,M,25.8,M,,*4A
$GNGSA,M,3,05,11,20,,,,,,,,,,3.05,2.34,1.96*1A
$GNGSA,M,3,82,65,66,,,,,,,,,,3.05,2.34,1.96*14
$GNRMC,090156.50,A,5023.68065,N,03029.03230,E,4.184,23.79,080523,,,A*47
$GNGGA,090156.50,5023.68065,N,03029.03230,E,1,06,2.34,236.3,M,25.8,M,,*47
$GNGSA,M,3,05,11,20,,,,,,,,,,3.05,2.34,1.96*1A
$GNGSA,M,3,82,65,66,,,,,,,,,,3.05,2.34,1.96*14
$GNRMC,090157.00,A,5023.68146,N,03029.03593,E,3.995,24.28,080523,,,A*41
$GNGGA,090157.00,5023.68146,N,03029.03593,E,1,06,2.34,235.5,M,25.8,M,,*48
$GNGSA,M,3,05,11,20,,,,,,,,,,3.05,2.34,1.96*1A
$GNGSA,M,3,82,65,66,,,,,,,,,,3.05,2.34,1.96*14
$GNRMC,090157.50,A,5023.68195,N,03029.03849,E,4.362,26.40,080523,,,A*49
$GNGGA,090157.50,5023.68195,N,03029.03849,E,1,06,2.34,235.3,M,25.8,M,,*4F
$GNGSA,M,3,05,11,20,,,,,,,,,,3.05,2.34,1.96*1A
$GNGSA,M,3,82,65,66,,,,,,,,,,3.05,2.34,1.96*14
$GNRMC,090158.00,A,5023.68301,N,03029.04172,E,4.365,28.66,080523,,,A*47
$GNGGA,090158.00,5023.68301,N,03029.04172,E,1,06,2.34,234.9,M,25.8,M,,*47
$GNGSA,M,3,05,11,20,,,,,,,,,,3.05,2.34,1.96*1A
$GNGSA,M,3,82,65,66,,,,,,,,,,3.05,2.34,1.96*14
$GNRMC,090158.50,A,5023.68411,N,03029.04533,E,4.191,,080523,,,A*68
$GNGGA,090158.50,5023.68411,N,03029.04533,E,1,05,3.87,234.3,M,25.8,M,,*45
$GNGSA,M,3,11,20,,,,,,,,,,,4.63,3.87,2.55*1D
$GNGSA,M,3,82,65,66,,,,,,,,,,4.63,3.87,2.55*16
$GNRMC,090159.00,A,5023.68547,N,03029.04872,E,4.070,,080523,,,A*68
$GNGGA,090159.00,5023.68547,N,03029.04872,E,1,05,3.87,234.2,M,25.8,M,,*4A
$GNGSA,M,3,11,20,,,,,,,,,,,4.63,3.87,2.55*1D
$GNGSA,M,3,82,65,66,,,,,,,,,,4.63,3.87,2.55*16
$GNRMC,090159.50,A,5023.68604,N,03029.05107,E,3.641,,080523,,,A*60
$GNGGA,090159.50,5023.68604,N,03029.05107,E,1,05,3.87,234.1,M,25.8,M,,*42
$GNGSA,M,3,11,20,,,,,,,,,,,4.63,3.87,2.55*1D
$GNGSA,M,3,82,65,66,,,,,,,,,,4.63,3.87,2.55*16
$GNRMC,090200.00,A,5023.68624,N,03029.05272,E,2.785,,080523,,,A*61
$GNGGA,090200.00,5023.68624,N,03029.05272,E,1,05,3.87,234.0,M,25.8,M,,*4A
$GNGSA,M,3,11,20,,,,,,,,,,,4.63,3.87,2.55*1D
$GNGSA,M,3,82,65,66,,,,,,,,,,4.63,3.87,2.55*16
$GNRMC,090200.50,A,5023.68581,N,03029.05300,E,5.839,357.18,080523,,,A*75
$GNGGA,090200.50,5023.68581,N,03029.05300,E,1,05,3.87,233.5,M,25.8,M,,*45
$GNGSA,M,3,11,20,,,,,,,,,,,4.63,3.87,2.55*1D
$GNGSA,M,3,82,65,66,,,,,,,,,,4.63,3.87,2.55*16
$GNRMC,090201.00,A,5023.68547,N,03029.05294,E,2.460,,080523,,,A*66
$GNGGA,090201.00,5023.68547,N,03029.05294,E,1,06,2.34,233.1,M,25.8,M,,*49
$GNGSA,M,3,05,11,20,,,,,,,,,,3.05,2.34,1.96*1A
$GNGSA,M,3,82,65,66,,,,,,,,,,3.05,2.34,1.96*14
$GNRMC,090201.50,A,5023.68495,N,03029.05280,E,2.692,,080523,,,A*67
$GNGGA,090201.50,5023.68495,N,03029.05280,E,1,06,2.34,232.5,M,25.8,M,,*42
$GNGSA,M,3,05,11,20,,,,,,,,,,3.05,2.34,1.96*1A
$GNGSA,M,3,82,65,66,,,,,,,,,,3.05,2.34,1.96*14
$GNRMC,090202.00,A,5023.68422,N,03029.05258,E,2.226,,080523,,,A*63
$GNGGA,090202.00,5023.68422,N,03029.05258,E,1,06,2.34,231.4,M,25.8,M,,*4F
$GNGSA,M,3,05,11,20,,,,,,,,,,3.05,2.34,1.96*1A
$GNGSA,M,3,82,65,66,,,,,,,,,,3.05,2.34,1.96*14
$GNRMC,090202.50,A,5023.68354,N,03029.05244,E,2.223,,080523,,,A*68
$GNGGA,090202.50,5023.68354,N,03029.05244,E,1,06,2.34,230.6,M,25.8,M,,*42
$GNGSA,M,3,05,11,20,,,,,,,,,,3.05,2.34,1.96*1A
$GNGSA,M,3,82,65,66,,,,,,,,,,3.05,2.34,1.96*14
$GNRMC,090203.00,A,5023.68271,N,03029.05065,E,1.815,,080523,,,A*67
$GNGGA,090203.00,5023.68271,N,03029.05065,E,1,05,2.53,230.7,M,25.8,M,,*42
$GNGSA,M,3,05,20,,,,,,,,,,,3.26,2.53,2.06*10
$GNGSA,M,3,82,65,66,,,,,,,,,,3.26,2.53,2.06*1E
$GNRMC,090203.50,A,5023.68179,N,03029.04899,E,1.973,,080523,,,A*62
$GNGGA,090203.50,5023.68179,N,03029.04899,E,1,05,2.53,230.6,M,25.8,M,,*47
$GNGSA,M,3,05,20,,,,,,,,,,,3.26,2.53,2.06*10
$GNGSA,M,3,82,65,66,,,,,,,,,,3.26,2.53,2.06*1E
$GNRMC,090204.00,A,5023.68118,N,03029.04761,E,1.423,,080523,,,A*67
$GNGGA,090204.00,5023.68118,N,03029.04761,E,1,05,2.53,230.4,M,25.8,M,,*48
$GNGSA,M,3,05,20,,,,,,,,,,,3.26,2.53,2.06*10
$GNGSA,M,3,82,65,66,,,,,,,,,,3.26,2.53,2.06*1E
$GNRMC,090204.50,A,5023.68067,N,03029.04652,E,0.922,,080523,,,A*67
$GNGGA,090204.50,5023.68067,N,03029.04652,E,1,05,2.53,230.4,M,25.8,M,,*45
$GNGSA,M,3,05,20,,,,,,,,,,,3.26,2.53,2.06*10
$GNGSA,M,3,82,65,66,,,,,,,,,,3.26,2.53,2.06*1E
$GNRMC,090205.00,A,5023.67990,N,03029.04531,E,0.792,,080523,,,A*6E
$GNGGA,090205.00,5023.67990,N,03029.04531,E,1,05,2.53,230.0,M,25.8,M,,*4D
$GNGSA,M,3,05,20,,,,,,,,,,,3.26,2.53,2.06*10
$GNGSA,M,3,82,65,66,,,,,,,,,,3.26,2.53,2.06*1E
$GNRMC,090205.50,A,5023.67877,N,03029.04374,E,0.992,,080523,,,A*6A
$GNGGA,090205.50,5023.67877,N,03029.04374,E,1,05,2.53,229.2,M,25.8,M,,*4D
$GNGSA,M,3,05,20,,,,,,,,,,,3.26,2.53,2.06*10
$GNGSA,M,3,82,65,66,,,,,,,,,,3.26,2.53,2.06*1E
$GNRMC,090206.00,A,5023.67852,N,03029.04278,E,1.648,,080523,,,A*6F
$GNGGA,090206.00,5023.67852,N,03029.04278,E,1,05,2.53,229.3,M,25.8,M,,*40
$GNGSA,M,3,05,20,,,,,,,,,,,3.26,2.53,2.06*10
$GNGSA,M,3,82,65,66,,,,,,,,,,3.26,2.53,2.06*1E
$GNRMC,090206.50,A,5023.67783,N,03029.04145,E,0.934,,080523,,,A*61
$GNGGA,090206.50,5023.67783,N,03029.04145,E,1,05,2.53,229.0,M,25.8,M,,*48
$GNGSA,M,3,05,20,,,,,,,,,,,3.26,2.53,2.06*10
$GNGSA,M,3,82,65,66,,,,,,,,,,3.26,2.53,2.06*1E
$GNRMC,090207.00,A,5023.67767,N,03029.04063,E,1.389,,080523,,,A*67
$GNGGA,090207.00,5023.67767,N,03029.04063,E,1,05,2.53,229.1,M,25.8,M,,*42
$GNGSA,M,3,05,20,,,,,,,,,,,3.26,2.53,2.06*10
$GNGSA,M,3,82,65,66,,,,,,,,,,3.26,2.53,2.06*1E
$GNRMC,090207.50,A,5023.67739,N,03029.03982,E,1.038,,080523,,,A*61
$GNGGA,090207.50,5023.67739,N,03029.03982,E,1,05,2.53,229.2,M,25.8,M,,*4E
$GNGSA,M,3,05,20,,,,,,,,,,,3.26,2.53,2.06*10
$GNGSA,M,3,82,65,66,,,,,,,,,,3.26,2.53,2.06*1E
$GNRMC,090208.00,A,5023.67706,N,03029.03901,E,1.386,,080523,,,A*6A
$GNGGA,090208.00,5023.67706,N,03029.03901,E,1,05,2.53,229.1,M,25.8,M,,*40
$GNGSA,M,3,05,20,,,,,,,,,,,3.26,2.53,2.06*10
$GNGSA,M,3,82,65,66,,,,,,,,,,3.26,2.53,2.06*1E
$GNRMC,090208.50,A,5023.67643,N,03029.03733,E,1.079,,080523,,,A*63
$GNGGA,090208.50,5023.67643,N,03029.03733,E,1,06,2.34,229.2,M,25.8,M,,*4B
$GNGSA,M,3,05,11,20,,,,,,,,,,3.05,2.34,1.96*1A
$GNGSA,M,3,82,65,66,,,,,,,,,,3.05,2.34,1.96*14
$GNRMC,090209.00,A,5023.67590,N,03029.03601,E,0.927,,080523,,,A*69
$GNGGA,090209.00,5023.67590,N,03029.03601,E,1,06,2.34,229.0,M,25.8,M,,*40
$GNGSA,M,3,05,11,20,,,,,,,,,,3.05,2.34,1.96*1A
$GNGSA,M,3,82,65,66,,,,,,,,,,3.05,2.34,1.96*14
$GNRMC,090209.50,A,5023.67557,N,03029.03508,E,1.538,,080523,,,A*6E
$GNGGA,090209.50,5023.67557,N,03029.03508,E,1,05,3.87,229.0,M,25.8,M,,*4E
$GNGSA,M,3,11,20,,,,,,,,,,,4.63,3.87,2.56*1E
$GNGSA,M,3,82,65,66,,,,,,,,,,4.63,3.87,2.56*15
$GNRMC,090210.00,A,5023.67539,N,03029.03430,E,1.706,,080523,,,A*6E
$GNGGA,090210.00,5023.67539,N,03029.03430,E,1,05,3.87,229.0,M,25.8,M,,*41
$GNGSA,M,3,11,20,,,,,,,,,,,4.63,3.87,2.56*1E
$GNGSA,M,3,82,65,66,,,,,,,,,,4.63,3.87,2.56*15
$GNRMC,090210.50,A,5023.67498,N,03029.03344,E,1.211,,080523,,,A*66
$GNGGA,090210.50,5023.67498,N,03029.03344,E,1,05,3.87,228.7,M,25.8,M,,*4C
$GNGSA,M,3,11,20,,,,,,,,,,,4.64,3.87,2.56*19
$GNGSA,M,3,82,65,66,,,,,,,,,,4.64,3.87,2.56*12
$GNRMC,090211.00,A,5023.67467,N,03029.03273,E,1.838,,080523,,,A*66
$GNGGA,090211.00,5023.67467,N,03029.03273,E,1,05,3.87,228.6,M,25.8,M,,*4C
$GNGSA,M,3,11,20,,,,,,,,,,,4.64,3.87,2.56*19
$GNGSA,M,3,82,65,66,,,,,,,,,,4.64,3.87,2.56*12
$GNRMC,090211.50,A,5023.67461,N,03029.03225,E,2.716,,080523,,,A*66
$GNGGA,090211.50,5023.67461,N,03029.03225,E,1,05,3.87,228.6,M,25.8,M,,*4C
$GNGSA,M,3,11,20,,,,,,,,,,,4.64,3.87,2.56*19
$GNGSA,M,3,82,65,66,,,,,,,,,,4.64,3.87,2.56*12
$GNRMC,090212.00,A,5023.67444,N,03029.03141,E,2.958,,080523,,,A*62
$GNGGA,090212.00,5023.67444,N,03029.03141,E,1,05,3.87,228.6,M,25.8,M,,*4C
$GNGSA,M,3,11,20,,,,,,,,,,,4.64,3.87,2.56*19
$GNGSA,M,3,82,65,66,,,,,,,,,,4.64,3.87,2.56*12
$GNRMC,090212.50,A,5023.67427,N,03029.03059,E,2.994,,080523,,,A*6A
$GNGGA,090212.50,5023.67427,N,03029.03059,E,1,05,3.87,228.5,M,25.8,M,,*47
$GNGSA,M,3,11,20,,,,,,,,,,,4.64,3.87,2.56*19
$GNGSA,M,3,82,65,66,,,,,,,,,,4.64,3.87,2.56*12
$GNRMC,090213.00,A,5023.67226,N,03029.02766,E,3.139,,080523,,,A*6D
$GNGGA,090213.00,5023.67226,N,03029.02766,E,1,04,4.31,223.8,M,25.8,M,,*43
$GNGSA,M,3,20,,,,,,,,,,,,5.15,4.31,2.81*1E
$GNGSA,M,3,82,65,66,,,,,,,,,,5.15,4.31,2.81*15
$GNRMC,090213.50,A,5023.67150,N,03029.02362,E,2.691,,080523,,,A*6E
$GNGGA,090213.50,5023.67150,N,03029.02362,E,1,05,3.87,223.6,M,25.8,M,,*41
$GNGSA,M,3,11,20,,,,,,,,,,,4.64,3.87,2.56*19
$GNGSA,M,3,82,65,66,,,,,,,,,,4.64,3.87,2.56*12
$GNRMC,090214.00,A,5023.67099,N,03029.02038,E,2.329,,080523,,,A*62
$GNGGA,090214.00,5023.67099,N,03029.02038,E,1,05,3.87,224.3,M,25.8,M,,*49
$GNGSA,M,3,11,20,,,,,,,,,,,4.64,3.87,2.56*19
$GNGSA,M,3,82,65,66,,,,,,,,,,4.64,3.87,2.56*12
$GNRMC,090214.50,V,,,,,,,080523,,,N*64
$GNGGA,090214.50,,,,,0,05,3.87,,,,,,*4A
$GNGSA,M,1,11,20,,,,,,,,,,,4.64,3.87,2.56*1B
$GNGSA,M,1,82,65,66,,,,,,,,,,4.64,3.87,2.56*10
$GNRMC,090215.00,V,,,,,,,080523,,,N*60
$GNGGA,090215.00,,,,,0,05,3.87,,,,,,*4E
$GNGSA,M,1,11,20,,,,,,,,,,,4.64,3.87,2.56*1B
$GNGSA,M,1,82,65,66,,,,,,,,,,4.64,3.87,2.56*10
$GNRMC,090215.50,V,,,,,,,080523,,,N*65
$GNGGA,090215.50,,,,,0,04,99.99,,,,,,*76
$GNGSA,M,1,11,,,,,,,,,,,,99.99,99.99,59.66*2E
$GNGSA,M,1,82,65,66,,,,,,,,,,99.99,99.99,59.66*27
$GNRMC,090216.00,V,,,,,,,080523,,,N*63
$GNGGA,090216.00,,,,,0,04,99.99,,,,,,*70
$GNGSA,M,1,11,,,,,,,,,,,,99.99,99.99,59.50*2B
$GNGSA,M,1,82,65,66,,,,,,,,,,99.99,99.99,59.50*22
$GNRMC,090216.50,V,,,,,,,080523,,,N*66
$GNGGA,090216.50,,,,,0,04,99.99,,,,,,*75
$GNGSA,M,1,11,,,,,,,,,,,,99.99,99.99,59.35*28
$GNGSA,M,1,82,65,66,,,,,,,,,,99.99,99.99,59.35*21
$GNRMC,090217.00,V,,,,,,,080523,,,N*62
$GNGGA,090217.00,,,,,0,05,3.87,,,,,,*4C
$GNGSA,M,1,11,20,,,,,,,,,,,4.64,3.87,2.56*1B
$GNGSA,M,1,82,65,66,,,,,,,,,,4.64,3.87,2.56*10
$GNRMC,090217.50,V,,,,,,,080523,,,N*67
$GNGGA,090217.50,,,,,0,05,3.87,,,,,,*49
$GNGSA,M,1,11,20,,,,,,,,,,,4.64,3.87,2.56*1B
$GNGSA,M,1,82,65,66,,,,,,,,,,4.64,3.87,2.56*10
$GNRMC,090218.00,V,,,,,,,080523,,,N*6D
$GNGGA,090218.00,,,,,0,05,3.87,,,,,,*43
$GNGSA,M,1,11,20,,,,,,,,,,,4.64,3.87,2.56*1B
$GNGSA,M,1,82,65,66,,,,,,,,,,4.64,3.87,2.56*10
$GNRMC,090218.50,V,,,,,,,080523,,,N*68
$GNGGA,090218.50,,,,,0,04,4.31,,,,,,*4D
$GNGSA,M,1,20,,,,,,,,,,,,5.14,4.31,2.81*1D
$GNGSA,M,1,82,65,66,,,,,,,,,,5.14,4.31,2.81*16
$GNRMC,090219.00,V,,,,,,,080523,,,N*6C
$GNGGA,090219.00,,,,,0,05,3.87,,,,,,*42
$GNGSA,M,1,11,20,,,,,,,,,,,4.64,3.87,2.56*1B
$GNGSA,M,1,82,65,66,,,,,,,,,,4.64,3.87,2.56*10
$GNRMC,090219.50,V,,,,,,,080523,,,N*69
$GNGGA,090219.50,,,,,0,05,3.87,,,,,,*47
$GNGSA,M,1,11,20,,,,,,,,,,,4.64,3.87,2.56*1B
$GNGSA,M,1,82,65,66,,,,,,,,,,4.64,3.87,2.56*10
$GNRMC,090220.00,V,,,,,,,080523,,,N*66
$GNGGA,090220.00,,,,,0,05,3.87,,,,,,*48
$GNGSA,M,1,11,20,,,,,,,,,,,4.64,3.87,2.56*1B
$GNGSA,M,1,82,65,66,,,,,,,,,,4.64,3.87,2.56*10
$GNRMC,090220.50,V,,,,,,,080523,,,N*63
$GNGGA,090220.50,,,,,0,05,3.87,,,,,,*4D
$GNGSA,M,1,11,20,,,,,,,,,,,4.64,3.87,2.56*1B
$GNGSA,M,1,82,65,66,,,,,,,,,,4.64,3.87,2.56*10
$GNRMC,090221.00,V,,,,,,,080523,,,N*67
$GNGGA,090221.00,,,,,0,05,3.87,,,,,,*49
$GNGSA,M,1,11,20,,,,,,,,,,,4.64,3.87,2.56*1B
$GNGSA,M,1,82,65,66,,,,,,,,,,4.64,3.87,2.56*10
$GNRMC,090221.50,V,,,,,,,080523,,,N*62
$GNGGA,090221.50,,,,,0,05,3.87,,,,,,*4C
$GNGSA,M,1,11,20,,,,,,,,,,,4.64,3.87,2.56*1B
$GNGSA,M,1,82,65,66,,,,,,,,,,4.64,3.87,2.56*10
$GNRMC,090222.00,V,,,,,,,080523,,,N*64
$GNGGA,090222.00,,,,,0,05,3.87,,,,,,*4A
$GNGSA,M,1,11,20,,,,,,,,,,,4.64,3.87,2.56*1B
$GNGSA,M,1,82,65,66,,,,,,,,,,4.64,3.87,2.56*10
$GNRMC,090222.50,V,,,,,,,080523,,,N*61
$GNGGA,090222.50,,,,,0,05,3.87,,,,,,*4F
$GNGSA,M,1,11,20,,,,,,,,,,,4.64,3.87,2.56*1B
$GNGSA,M,1,82,65,66,,,,,,,,,,4.64,3.87,2.56*10
$GNRMC,090223.00,V,,,,,,,080523,,,N*65
$GNGGA,090223.00,,,,,0,05,3.87,,,,,,*4B
$GNGSA,M,1,11,20,,,,,,,,,,,4.64,3.87,2.56*1B
$GNGSA,M,1,82,65,66,,,,,,,,,,4.64,3.87,2.56*10
$GNRMC,090223.50,V,,,,,,,080523,,,N*60
$GNGGA,090223.50,,,,,0,05,3.87,,,,,,*4E
$GNGSA,M,1,11,20,,,,,,,,,,,4.64,3.87,2.56*1B
$GNGSA,M,1,82,65,66,,,,,,,,,,4.64,3.87,2.56*10
$GNRMC,090224.00,V,,,,,,,080523,,,N*62
$GNGGA,090224.00,,,,,0,00,99.99,,,,,,*75
$GNGSA,M,1,,,,,,,,,,,,,99.99,99.99,99.99*22
$GNGSA,M,1,,,,,,,,,,,,,99.99,99.99,99.99*22
$GNRMC,090224.50,V,,,,,,,080523,,,N*67
$GNGGA,090224.50,,,,,0,00,99.99,,,,,,*70
$GNGSA,M,1,,,,,,,,,,,,,99.99,99.99,99.99*22
$GNGSA,M,1,,,,,,,,,,,,,99.99,99.99,99.99*22
$GNRMC,090225.00,V,,,,,,,080523,,,N*63
$GNGGA,090225.00,,,,,0,00,99.99,,,,,,*74
$GNGSA,M,1,,,,,,,,,,,,,99.99,99.99,99.99*22
$GNGSA,M,1,,,,,,,,,,,,,99.99,99.99,99.99*22
$GNRMC,090225.50,V,,,,,,,080523,,,N*66
$GNGGA,090225.50,,,,,0,05,2.53,,,,,,*40
$GNGSA,M,1,05,20,,,,,,,,,,,3.27,2.53,2.07*12
$GNGSA,M,1,82,65,66,,,,,,,,,,3.27,2.53,2.07*1C
$GNRMC,090226.00,V,,,,,,,080523,,,N*60
$GNGGA,090226.00,,,,,0,05,2.53,,,,,,*46
$GNGSA,M,1,05,20,,,,,,,,,,,3.27,2.53,2.07*12
$GNGSA,M,1,82,65,66,,,,,,,,,,3.27,2.53,2.07*1C
$GNRMC,090226.50,V,,,,,,,080523,,,N*65
$GNGGA,090226.50,,,,,0,05,2.53,,,,,,*43
$GNGSA,M,1,05,20,,,,,,,,,,,3.27,2.53,2.07*12
$GNGSA,M,1,82,65,66,,,,,,,,,,3.27,2.53,2.07*1C
$GNRMC,090227.00,V,,,,,,,080523,,,N*61
$GNGGA,090227.00,,,,,0,05,2.53,,,,,,*47
$GNGSA,M,1,05,20,,,,,,,,,,,3.27,2.53,2.07*12
$GNGSA,M,1,82,65,66,,,,,,,,,,3.27,2.53,2.07*1C
$GNRMC,090227.50,V,,,,,,,080523,,,N*64
$GNGGA,090227.50,,,,,0,05,2.53,,,,,,*42
$GNGSA,M,1,05,20,,,,,,,,,,,3.27,2.53,2.07*12
$GNGSA,M,1,82,65,66,,,,,,,,,,3.27,2.53,2.07*1C
$GNRMC,090228.00,V,,,,,,,080523,,,N*6E
$GNGGA,090228.00,,,,,0,05,2.53,,,,,,*48
$GNGSA,M,1,05,20,,,,,,,,,,,3.27,2.53,2.07*12
$GNGSA,M,1,82,65,66,,,,,,,,,,3.27,2.53,2.07*1C
$GNRMC,090228.50,V,,,,,,,080523,,,N*6B
$GNGGA,090228.50,,,,,0,04,4.30,,,,,,*4F
$GNGSA,M,1,20,,,,,,,,,,,,5.14,4.30,2.81*1C
$GNGSA,M,1,82,65,66,,,,,,,,,,5.14,4.30,2.81*17
$GNRMC,090229.00,V,,,,,,,080523,,,N*6F
$GNGGA,090229.00,,,,,0,04,4.30,,,,,,*4B
$GNGSA,M,1,20,,,,,,,,,,,,5.14,4.30,2.81*1C
$GNGSA,M,1,82,65,66,,,,,,,,,,5.14,4.30,2.81*17
$GNRMC,090229.50,V,,,,,,,080523,,,N*6A
$GNGGA,090229.50,,,,,0,04,4.30,,,,,,*4E
$GNGSA,M,1,20,,,,,,,,,,,,5.14,4.30,2.81*1C
$GNGSA,M,1,82,65,66,,,,,,,,,,5.14,4.30,2.81*17
$GNRMC,090230.00,V,,,,,,,080523,,,N*67
$GNGGA,090230.00,,,,,0,05,3.86,,,,,,*48
$GNGSA,M,1,11,20,,,,,,,,,,,4.64,3.86,2.56*1A
$GNGSA,M,1,82,65,66,,,,,,,,,,4.64,3.86,2.56*11
$GNRMC,090230.50,V,,,,,,,080523,,,N*62
$GNGGA,090230.50,,,,,0,05,3.86,,,,,,*4D
$GNGSA,M,1,11,20,,,,,,,,,,,4.64,3.86,2.56*1A
$GNGSA,M,1,82,65,66,,,,,,,,,,4.64,3.86,2.56*11
$GNRMC,090231.00,V,,,,,,,080523,,,N*66
$GNGGA,090231.00,,,,,0,05,3.86,,,,,,*49
$GNGSA,M,1,11,20,,,,,,,,,,,4.64,3.86,2.56*1A
$GNGSA,M,1,82,65,66,,,,,,,,,,4.64,3.86,2.56*11
$GNRMC,090231.50,V,,,,,,,080523,,,N*63
$GNGGA,090231.50,,,,,0,05,3.86,,,,,,*4C
$GNGSA,M,1,11,20,,,,,,,,,,,4.64,3.86,2.56*1A
$GNGSA,M,1,82,65,66,,,,,,,,,,4.64,3.86,2.56*11
$GNRMC,090232.00,V,,,,,,,080523,,,N*65
$GNGGA,090232.00,,,,,0,05,3.86,,,,,,*4A
$GNGSA,M,1,11,20,,,,,,,,,,,4.64,3.86,2.56*1A
$GNGSA,M,1,82,65,66,,,,,,,,,,4.64,3.86,2.56*11
$GNRMC,090232.50,V,,,,,,,080523,,,N*60
$GNGGA,090232.50,,,,,0,05,3.86,,,,,,*4F
$GNGSA,M,1,11,20,,,,,,,,,,,4.64,3.86,2.57*1B
$GNGSA,M,1,82,65,66,,,,,,,,,,4.64,3.86,2.57*10
$GNRMC,090233.00,V,,,,,,,080523,,,N*64
$GNGGA,090233.00,,,,,0,05,3.86,,,,,,*4B
$GNGSA,M,1,11,20,,,,,,,,,,,4.64,3.86,2.57*1B
$GNGSA,M,1,82,65,66,,,,,,,,,,4.64,3.86,2.57*10
$GNRMC,090233.50,V,,,,,,,080523,,,N*61
$GNGGA,090233.50,,,,,0,04,4.30,,,,,,*45
$GNGSA,M,1,20,,,,,,,,,,,,5.14,4.30,2.81*1C
$GNGSA,M,1,82,65,66,,,,,,,,,,5.14,4.30,2.81*17
$GNRMC,090234.00,V,,,,,,,080523,,,N*63
$GNGGA,090234.00,,,,,0,05,3.86,,,,,,*4C
$GNGSA,M,1,11,20,,,,,,,,,,,4.64,3.86,2.57*1B
$GNGSA,M,1,82,65,66,,,,,,,,,,4.64,3.86,2.57*10
$GNRMC,090234.50,V,,,,,,,080523,,,N*66
$GNGGA,090234.50,,,,,0,05,3.86,,,,,,*49
$GNGSA,M,1,11,20,,,,,,,,,,,4.64,3.86,2.57*1B
$GNGSA,M,1,82,65,66,,,,,,,,,,4.64,3.86,2.57*10
$GNRMC,090235.00,V,,,,,,,080523,,,N*62
$GNGGA,090235.00,,,,,0,05,3.86,,,,,,*4D
$GNGSA,M,1,11,20,,,,,,,,,,,4.64,3.86,2.57*1B
$GNGSA,M,1,82,65,66,,,,,,,,,,4.64,3.86,2.57*10
$GNRMC,090235.50,V,,,,,,,080523,,,N*67
$GNGGA,090235.50,,,,,0,05,3.86,,,,,,*48
$GNGSA,M,1,11,20,,,,,,,,,,,4.64,3.86,2.57*1B
$GNGSA,M,1,82,65,66,,,,,,,,,,4.64,3.86,2.57*10
$GNRMC,090236.00,V,,,,,,,080523,,,N*61
$GNGGA,090236.00,,,,,0,05,3.86,,,,,,*4E
$GNGSA,M,1,11,20,,,,,,,,,,,4.64,3.86,2.57*1B
$GNGSA,M,1,82,65,66,,,,,,,,,,4.64,3.86,2.57*10
$GNRMC,090236.50,V,,,,,,,080523,,,N*64
$GNGGA,090236.50,,,,,0,04,4.07,,,,,,*44
$GNGSA,M,1,11,20,,,,,,,,,,,6.21,4.07,4.69*1D
$GNGSA,M,1,65,66,,,,,,,,,,,6.21,4.07,4.69*1C
$GNRMC,090237.00,V,,,,,,,080523,,,N*60
$GNGGA,090237.00,,,,,0,04,4.07,,,,,,*40
$GNGSA,M,1,11,20,,,,,,,,,,,6.21,4.07,4.69*1D
$GNGSA,M,1,65,66,,,,,,,,,,,6.21,4.07,4.69*1C
$GNRMC,090237.50,V,,,,,,,080523,,,N*65
$GNGGA,090237.50,,,,,0,05,2.53,,,,,,*43
$GNGSA,M,1,05,11,20,,,,,,,,,,4.44,2.53,3.65*15
$GNGSA,M,1,65,66,,,,,,,,,,,4.44,2.53,3.65*11
$GNRMC,090238.00,V,,,,,,,080523,,,N*6F
$GNGGA,090238.00,,,,,0,05,2.53,,,,,,*49
$GNGSA,M,1,05,11,20,,,,,,,,,,4.44,2.53,3.65*15
$GNGSA,M,1,65,66,,,,,,,,,,,4.44,2.53,3.65*11
$GNRMC,090238.50,V,,,,,,,080523,,,N*6A
$GNGGA,090238.50,,,,,0,05,2.53,,,,,,*4C
$GNGSA,M,1,05,11,20,,,,,,,,,,4.44,2.53,3.65*15
$GNGSA,M,1,65,66,,,,,,,,,,,4.44,2.53,3.65*11
$GNRMC,090239.00,V,,,,,,,080523,,,N*6E
$GNGGA,090239.00,,,,,0,04,2.78,,,,,,*40
$GNGSA,M,1,05,20,,,,,,,,,,,6.73,2.78,6.13*1E
$GNGSA,M,1,65,66,,,,,,,,,,,6.73,2.78,6.13*1A
$GNRMC,090239.50,V,,,,,,,080523,,,N*6B
$GNGGA,090239.50,,,,,0,04,2.78,,,,,,*45
$GNGSA,M,1,05,20,,,,,,,,,,,6.73,2.78,6.14*19
$GNGSA,M,1,65,66,,,,,,,,,,,6.73,2.78,6.14*1D
$GNRMC,090240.00,V,,,,,,,080523,,,N*60
$GNGGA,090240.00,,,,,0,04,2.78,,,,,,*4E
$GNGSA,M,1,05,20,,,,,,,,,,,6.74,2.78,6.14*1E
$GNGSA,M,1,65,66,,,,,,,,,,,6.74,2.78,6.14*1A
$GNRMC,090240.50,V,,,,,,,080523,,,N*65
$GNGGA,090240.50,,,,,0,00,99.99,,,,,,*72
$GNGSA,M,1,,,,,,,,,,,,,99.99,99.99,99.99*22
$GNGSA,M,1,,,,,,,,,,,,,99.99,99.99,99.99*22
$GNRMC,090241.00,V,,,,,,,080523,,,N*61
$GNGGA,090241.00,,,,,0,00,99.99,,,,,,*76
$GNGSA,M,1,,,,,,,,,,,,,99.99,99.99,99.99*22
$GNGSA,M,1,,,,,,,,,,,,,99.99,99.99,99.99*22
$GNRMC,090241.50,V,,,,,,,080523,,,N*64
$GNGGA,090241.50,,,,,0,00,99.99,,,,,,*73
$GNGSA,M,1,,,,,,,,,,,,,99.99,99.99,99.99*22
$GNGSA,M,1,,,,,,,,,,,,,99.99,99.99,99.99*22
$GNRMC,090242.00,V,,,,,,,080523,,,N*62
$GNGGA,090242.00,,,,,0,00,99.99,,,,,,*75
$GNGSA,M,1,,,,,,,,,,,,,99.99,99.99,99.99*22
$GNGSA,M,1,,,,,,,,,,,,,99.99,99.99,99.99*22
$GNRMC,090242.50,V,,,,,,,080523,,,N*67
$GNGGA,090242.50,,,,,0,04,2.78,,,,,,*49
$GNGSA,M,1,05,20,,,,,,,,,,,6.74,2.78,6.14*1E
$GNGSA,M,1,65,66,,,,,,,,,,,6.74,2.78,6.14*1A
$GNRMC,090243.00,V,,,,,,,080523,,,N*63
$GNGGA,090243.00,,,,,0,04,4.07,,,,,,*43
$GNGSA,M,1,11,20,,,,,,,,,,,6.22,4.07,4.71*17
$GNGSA,M,1,65,66,,,,,,,,,,,6.22,4.07,4.71*16
$GNRMC,090243.50,V,,,,,,,080523,,,N*66
$GNGGA,090243.50,,,,,0,05,2.53,,,,,,*40
$GNGSA,M,1,05,11,20,,,,,,,,,,4.45,2.53,3.66*17
$GNGSA,M,1,65,66,,,,,,,,,,,4.45,2.53,3.66*13
$GNRMC,090244.00,V,,,,,,,080523,,,N*64
$GNGGA,090244.00,,,,,0,00,99.99,,,,,,*73
$GNGSA,M,1,,,,,,,,,,,,,99.99,99.99,99.99*22
$GNGSA,M,1,,,,,,,,,,,,,99.99,99.99,99.99*22
$GNRMC,090244.50,V,,,,,,,080523,,,N*61
$GNGGA,090244.50,,,,,0,04,4.30,,,,,,*45
$GNGSA,M,1,20,,,,,,,,,,,,5.14,4.30,2.81*1C
$GNGSA,M,1,82,65,66,,,,,,,,,,5.14,4.30,2.81*17
$GNRMC,090245.00,V,,,,,,,080523,,,N*65
$GNGGA,090245.00,,,,,0,05,3.86,,,,,,*4A
$GNGSA,M,1,11,20,,,,,,,,,,,4.64,3.86,2.57*1B
$GNGSA,M,1,82,65,66,,,,,,,,,,4.64,3.86,2.57*10
$GNRMC,090245.50,V,,,,,,,080523,,,N*60
$GNGGA,090245.50,,,,,0,05,3.86,,,,,,*4F
$GNGSA,M,1,11,20,,,,,,,,,,,4.64,3.86,2.57*1B
$GNGSA,M,1,82,65,66,,,,,,,,,,4.64,3.86,2.57*10
$GNRMC,090246.00,V,,,,,,,080523,,,N*66
$GNGGA,090246.00,,,,,0,05,3.86,,,,,,*49
$GNGSA,M,1,11,20,,,,,,,,,,,4.64,3.86,2.57*1B
$GNGSA,M,1,82,65,66,,,,,,,,,,4.64,3.86,2.57*10
$GNRMC,090246.50,V,,,,,,,080523,,,N*63
$GNGGA,090246.50,,,,,0,05,3.86,,,,,,*4C
$GNGSA,M,1,11,20,,,,,,,,,,,4.64,3.86,2.57*1B
$GNGSA,M,1,82,65,66,,,,,,,,,,4.64,3.86,2.57*10
$GNRMC,090247.00,V,,,,,,,080523,,,N*67
$GNGGA,090247.00,,,,,0,05,3.86,,,,,,*48
$GNGSA,M,1,11,20,,,,,,,,,,,4.64,3.86,2.57*1B
$GNGSA,M,1,82,65,66,,,,,,,,,,4.64,3.86,2.57*10
$GNRMC,090247.50,V,,,,,,,080523,,,N*62
$GNGGA,090247.50,,,,,0,05,3.86,,,,,,*4D
$GNGSA,M,1,11,20,,,,,,,,,,,4.64,3.86,2.57*1B
$GNGSA,M,1,82,65,66,,,,,,,,,,4.64,3.86,2.57*10
$GNRMC,090248.00,V,,,,,,,080523,,,N*68
$GNGGA,090248.00,,,,,0,05,3.86,,,,,,*47
$GNGSA,M,1,11,20,,,,,,,,,,,4.64,3.86,2.57*1B
$GNGSA,M,1,82,65,66,,,,,,,,,,4.64,3.86,2.57*10
$GNRMC,090248.50,V,,,,,,,080523,,,N*6D
$GNGGA,090248.50,,,,,0,05,3.86,,,,,,*42
$GNGSA,M,1,11,20,,,,,,,,,,,4.64,3.86,2.57*1B
$GNGSA,M,1,82,65,66,,,,,,,,,,4.64,3.86,2.57*10
$GNRMC,090249.00,V,,,,,,,080523,,,N*69
$GNGGA,090249.00,,,,,0,05,3.86,,,,,,*46
$GNGSA,M,1,11,20,,,,,,,,,,,4.64,3.86,2.57*1B
$GNGSA,M,1,82,65,66,,,,,,,,,,4.64,3.86,2.57*10
$GNRMC,090249.50,V,,,,,,,080523,,,N*6C
$GNGGA,090249.50,,,,,0,05,3.86,,,,,,*43
$GNGSA,M,1,11,20,,,,,,,,,,,4.64,3.86,2.57*1B
$GNGSA,M,1,82,65,66,,,,,,,,,,4.64,3.86,2.57*10
$GNRMC,090250.00,V,,,,,,,080523,,,N*61
$GNGGA,090250.00,,,,,0,05,3.86,,,,,,*4E
$GNGSA,M,1,11,20,,,,,,,,,,,4.64,3.86,2.57*1B
$GNGSA,M,1,82,65,66,,,,,,,,,,4.64,3.86,2.57*10
$GNRMC,090250.50,V,,,,,,,080523,,,N*64
$GNGGA,090250.50,,,,,0,04,4.29,,,,,,*48
$GNGSA,M,1,20,,,,,,,,,,,,5.13,4.29,2.81*13
$GNGSA,M,1,82,65,66,,,,,,,,,,5.13,4.29,2.81*18
$GNRMC,090251.00,V,,,,,,,080523,,,N*60
$GNGGA,090251.00,,,,,0,04,4.29,,,,,,*4C
$GNGSA,M,1,20,,,,,,,,,,,,5.13,4.29,2.81*13
$GNGSA,M,1,82,65,66,,,,,,,,,,5.13,4.29,2.81*18
$GNRMC,090251.50,V,,,,,,,080523,,,N*65
$GNGGA,090251.50,,,,,0,04,4.29,,,,,,*49
$GNGSA,M,1,20,,,,,,,,,,,,5.13,4.29,2.82*10
$GNGSA,M,1,82,65,66,,,,,,,,,,5.13,4.29,2.82*1B
$GNRMC,090252.00,V,,,,,,,080523,,,N*63
$GNGGA,090252.00,,,,,0,04,4.29,,,,,,*4F
$GNGSA,M,1,20,,,,,,,,,,,,5.13,4.29,2.82*10
$GNGSA,M,1,82,65,66,,,,,,,,,,5.13,4.29,2.82*1B
$GNRMC,090252.50,V,,,,,,,080523,,,N*66
$GNGGA,090252.50,,,,,0,04,4.29,,,,,,*4A
$GNGSA,M,1,20,,,,,,,,,,,,5.13,4.29,2.82*10
$GNGSA,M,1,82,65,66,,,,,,,,,,5.13,4.29,2.82*1B
$GNRMC,090253.00,V,,,,,,,080523,,,N*62
$GNGGA,090253.00,,,,,0,04,4.29,,,,,,*4E
$GNGSA,M,1,20,,,,,,,,,,,,5.13,4.29,2.82*10
$GNGSA,M,1,82,65,66,,,,,,,,,,5.13,4.29,2.82*1B
$GNRMC,090253.50,V,,,,,,,080523,,,N*67
$GNGGA,090253.50,,,,,0,04,4.29,,,,,,*4B
$GNGSA,M,1,20,,,,,,,,,,,,5.13,4.29,2.82*10
$GNGSA,M,1,82,65,66,,,,,,,,,,5.13,4.29,2.82*1B
$GNRMC,090254.00,V,,,,,,,080523,,,N*65
$GNGGA,090254.00,,,,,0,04,4.29,,,,,,*49
$GNGSA,M,1,20,,,,,,,,,,,,5.13,4.29,2.82*10
$GNGSA,M,1,82,65,66,,,,,,,,,,5.13,4.29,2.82*1B
$GNRMC,090254.50,V,,,,,,,080523,,,N*60
$GNGGA,090254.50,,,,,0,04,4.29,,,,,,*4C
$GNGSA,M,1,20,,,,,,,,,,,,5.13,4.29,2.82*10
$GNGSA,M,1,82,65,66,,,,,,,,,,5.13,4.29,2.82*1B
$GNRMC,090255.00,V,,,,,,,080523,,,N*64
$GNGGA,090255.00,,,,,0,04,4.29,,,,,,*48
$GNGSA,M,1,20,,,,,,,,,,,,5.13,4.29,2.82*10
$GNGSA,M,1,82,65,66,,,,,,,,,,5.13,4.29,2.82*1B
$GNRMC,090255.50,V,,,,,,,080523,,,N*61
$GNGGA,090255.50,,,,,0,04,4.29,,,,,,*4D
$GNGSA,M,1,20,,,,,,,,,,,,5.13,4.29,2.82*10
$GNGSA,M,1,82,65,66,,,,,,,,,,5.13,4.29,2.82*1B
$GNRMC,090256.00,V,,,,,,,080523,,,N*67
$GNGGA,090256.00,,,,,0,04,4.29,,,,,,*4B
$GNGSA,M,1,20,,,,,,,,,,,,5.13,4.29,2.82*10
$GNGSA,M,1,82,65,66,,,,,,,,,,5.13,4.29,2.82*1B
$GNRMC,090256.50,V,,,,,,,080523,,,N*62
$GNGGA,090256.50,,,,,0,04,4.29,,,,,,*4E
$GNGSA,M,1,20,,,,,,,,,,,,5.13,4.29,2.82*10
$GNGSA,M,1,82,65,66,,,,,,,,,,5.13,4.29,2.82*1B
$GNRMC,090257.00,V,,,,,,,080523,,,N*66
$GNGGA,090257.00,,,,,0,04,4.29,,,,,,*4A
$GNGSA,M,1,20,,,,,,,,,,,,5.13,4.29,2.82*10
$GNGSA,M,1,82,65,66,,,,,,,,,,5.13,4.29,2.82*1B
$GNRMC,090257.50,V,,,,,,,080523,,,N*63
$GNGGA,090257.50,,,,,0,04,4.29,,,,,,*4F
$GNGSA,M,1,20,,,,,,,,,,,,5.13,4.29,2.82*10
$GNGSA,M,1,82,65,66,,,,,,,,,,5.13,4.29,2.82*1B
$GNRMC,090258.00,V,,,,,,,080523,,,N*69
$GNGGA,090258.00,,,,,0,04,4.29,,,,,,*45
$GNGSA,M,1,20,,,,,,,,,,,,5.13,4.29,2.82*10
$GNGSA,M,1,82,65,66,,,,,,,,,,5.13,4.29,2.82*1B
$GNRMC,090258.50,V,,,,,,,080523,,,N*6C
$GNGGA,090258.50,,,,,0,04,4.29,,,,,,*40
$GNGSA,M,1,20,,,,,,,,,,,,5.13,4.29,2.82*10
$GNGSA,M,1,82,65,66,,,,,,,,,,5.13,4.29,2.82*1B
$GNRMC,090259.00,V,,,,,,,080523,,,N*68
$GNGGA,090259.00,,,,,0,04,4.29,,,,,,*44
$GNGSA,M,1,20,,,,,,,,,,,,5.13,4.29,2.82*10
$GNGSA,M,1,82,65,66,,,,,,,,,,5.13,4.29,2.82*1B
$GNRMC,090259.50,V,,,,,,,080523,,,N*6D
$GNGGA,090259.50,,,,,0,04,4.29,,,,,,*41
$GNGSA,M,1,20,,,,,,,,,,,,5.13,4.29,2.82*10
$GNGSA,M,1,82,65,66,,,,,,,,,,5.13,4.29,2.82*1B
$GNRMC,090300.00,V,,,,,,,080523,,,N*65
$GNGGA,090300.00,,,,,0,04,4.29,,,,,,*49
$GNGSA,M,1,20,,,,,,,,,,,,5.13,4.29,2.82*10
$GNGSA,M,1,82,65,66,,,,,,,,,,5.13,4.29,2.82*1B
$GNRMC,090300.50,V,,,,,,,080523,,,N*60
$GNGGA,090300.50,,,,,0,04,4.29,,,,,,*4C
$GNGSA,M,1,20,,,,,,,,,,,,5.13,4.29,2.82*10
$GNGSA,M,1,82,65,66,,,,,,,,,,5.13,4.29,2.82*1B
$GNRMC,090301.00,V,,,,,,,080523,,,N*64
$GNGGA,090301.00,,,,,0,04,4.29,,,,,,*48
$GNGSA,M,1,20,,,,,,,,,,,,5.13,4.29,2.82*10
$GNGSA,M,1,82,65,66,,,,,,,,,,5.13,4.29,2.82*1B
$GNRMC,090301.50,V,,,,,,,080523,,,N*61
$GNGGA,090301.50,,,,,0,04,4.29,,,,,,*4D
$GNGSA,M,1,20,,,,,,,,,,,,5.13,4.29,2.82*10
$GNGSA,M,1,82,65,66,,,,,,,,,,5.13,4.29,2.82*1B
$GNRMC,090302.00,V,,,,,,,080523,,,N*67
$GNGGA,090302.00,,,,,0,04,4.29,,,,,,*4B
$GNGSA,M,1,20,,,,,,,,,,,,5.13,4.29,2.82*10
$GNGSA,M,1,82,65,66,,,,,,,,,,5.13,4.29,2.82*1B
$GNRMC,090302.50,V,,,,,,,080523,,,N*62
$GNGGA,090302.50,,,,,0,04,4.29,,,,,,*4E
$GNGSA,M,1,20,,,,,,,,,,,,5.13,4.29,2.82*10
$GNGSA,M,1,82,65,66,,,,,,,,,,5.13,4.29,2.82*1B
$GNRMC,090303.00,V,,,,,,,080523,,,N*66
$GNGGA,090303.00,,,,,0,04,4.29,,,,,,*4A
$GNGSA,M,1,20,,,,,,,,,,,,5.13,4.29,2.82*10
$GNGSA,M,1,82,65,66,,,,,,,,,,5.13,4.29,2.82*1B
$GNRMC,090303.50,V,,,,,,,080523,,,N*63
$GNGGA,090303.50,,,,,0,04,4.29,,,,,,*4F
$GNGSA,M,1,20,,,,,,,,,,,,5.13,4.29,2.82*10
$GNGSA,M,1,82,65,66,,,,,,,,,,5.13,4.29,2.82*1B
$GNRMC,090304.00,V,,,,,,,080523,,,N*61
$GNGGA,090304.00,,,,,0,04,4.29,,,,,,*4D
$GNGSA,M,1,20,,,,,,,,,,,,5.13,4.29,2.82*10
$GNGSA,M,1,82,65,66,,,,,,,,,,5.13,4.29,2.82*1B
$GNRMC,090304.50,V,,,,,,,080523,,,N*64
$GNGGA,090304.50,,,,,0,04,4.29,,,,,,*48
$GNGSA,M,1,20,,,,,,,,,,,,5.13,4.29,2.82*10
$GNGSA,M,1,82,65,66,,,,,,,,,,5.13,4.29,2.82*1B
$GNRMC,090305.00,V,,,,,,,080523,,,N*60
$GNGGA,090305.00,,,,,0,04,4.29,,,,,,*4C
$GNGSA,M,1,20,,,,,,,,,,,,5.13,4.29,2.82*10
$GNGSA,M,1,82,65,66,,,,,,,,,,5.13,4.29,2.82*1B
$GNRMC,090305.50,V,,,,,,,080523,,,N*65
$GNGGA,090305.50,,,,,0,04,4.29,,,,,,*49
$GNGSA,M,1,20,,,,,,,,,,,,5.13,4.29,2.82*10
$GNGSA,M,1,82,65,66,,,,,,,,,,5.13,4.29,2.82*1B
$GNRMC,090306.00,V,,,,,,,080523,,,N*63
$GNGGA,090306.00,,,,,0,04,4.29,,,,,,*4F
$GNGSA,M,1,20,,,,,,,,,,,,5.13,4.29,2.82*10
$GNGSA,M,1,82,65,66,,,,,,,,,,5.13,4.29,2.82*1B
$GNRMC,090306.50,A,5023.82837,N,03029.15339,E,8.050,202.11,080523,,,A*7F
$GNGGA,090306.50,5023.82837,N,03029.15339,E,1,04,4.29,478.4,M,25.8,M,,*47
$GNGSA,M,3,20,,,,,,,,,,,,5.13,4.29,2.82*12
$GNGSA,M,3,82,65,66,,,,,,,,,,5.13,4.29,2.82*19
$GNRMC,090307.00,A,5023.82463,N,03029.15097,E,8.265,200.81,080523,,,A*7E
$GNGGA,090307.00,5023.82463,N,03029.15097,E,1,04,4.29,472.6,M,25.8,M,,*41
$GNGSA,M,3,20,,,,,,,,,,,,5.13,4.29,2.82*12
$GNGSA,M,3,82,65,66,,,,,,,,,,5.13,4.29,2.82*19
$GNRMC,090307.50,A,5023.82012,N,03029.14811,E,8.107,201.16,080523,,,A*76
$GNGGA,090307.50,5023.82012,N,03029.14811,E,1,04,4.29,466.7,M,25.8,M,,*45
$GNGSA,M,3,20,,,,,,,,,,,,5.13,4.29,2.82*12
$GNGSA,M,3,82,65,66,,,,,,,,,,5.13,4.29,2.82*19
$GNRMC,090308.00,A,5023.81560,N,03029.14522,E,8.648,201.13,080523,,,A*7B
$GNGGA,090308.00,5023.81560,N,03029.14522,E,1,04,4.29,460.5,M,25.8,M,,*45
$GNGSA,M,3,20,,,,,,,,,,,,5.13,4.29,2.82*12
$GNGSA,M,3,82,65,66,,,,,,,,,,5.13,4.29,2.82*19
$GNRMC,090308.50,A,5023.81128,N,03029.14230,E,8.896,200.14,080523,,,A*79
$GNGGA,090308.50,5023.81128,N,03029.14230,E,1,04,4.29,454.5,M,25.8,M,,*4B
$GNGSA,M,3,20,,,,,,,,,,,,5.13,4.29,2.82*12
$GNGSA,M,3,82,65,66,,,,,,,,,,5.13,4.29,2.82*19
$GNRMC,090309.00,A,5023.80796,N,03029.14005,E,8.162,200.79,080523,,,A*72
$GNGGA,090309.00,5023.80796,N,03029.14005,E,1,04,4.29,449.6,M,25.8,M,,*46
$GNGSA,M,3,20,,,,,,,,,,,,5.13,4.29,2.82*12
$GNGSA,M,3,82,65,66,,,,,,,,,,5.13,4.29,2.82*19
$GNRMC,090309.50,V,,,,,,,080523,,,N*69
$GNGGA,090309.50,,,,,0,00,99.99,,,,,,*7E
$GNGSA,M,1,,,,,,,,,,,,,99.99,99.99,99.99*22
$GNGSA,M,1,,,,,,,,,,,,,99.99,99.99,99.99*22
$GNRMC,090310.00,V,,,,,,,080523,,,N*64
$GNGGA,090310.00,,,,,0,00,99.99,,,,,,*73
$GNGSA,M,1,,,,,,,,,,,,,99.99,99.99,99.99*22
$GNGSA,M,1,,,,,,,,,,,,,99.99,99.99,99.99*22
$GNRMC,090310.50,V,,,,,,,080523,,,N*61
$GNGGA,090310.50,,,,,0,00,99.99,,,,,,*76
$GNGSA,M,1,,,,,,,,,,,,,99.99,99.99,99.99*22
$GNGSA,M,1,,,,,,,,,,,,,99.99,99.99,99.99*22
$GNRMC,090311.00,V,,,,,,,080523,,,N*65
$GNGGA,090311.00,,,,,0,00,99.99,,,,,,*72
$GNGSA,M,1,,,,,,,,,,,,,99.99,99.99,99.99*22
$GNGSA,M,1,,,,,,,,,,,,,99.99,99.99,99.99*22
$GNRMC,090311.50,V,,,,,,,080523,,,N*60
$GNGGA,090311.50,,,,,0,00,99.99,,,,,,*77
$GNGSA,M,1,,,,,,,,,,,,,99.99,99.99,99.99*22
$GNGSA,M,1,,,,,,,,,,,,,99.99,99.99,99.99*22
$GNRMC,090312.00,V,,,,,,,080523,,,N*66
$GNGGA,090312.00,,,,,0,00,99.99,,,,,,*71
$GNGSA,M,1,,,,,,,,,,,,,99.99,99.99,99.99*22
$GNGSA,M,1,,,,,,,,,,,,,99.99,99.99,99.99*22
$GNRMC,090312.50,V,,,,,,,080523,,,N*63
$GNGGA,090312.50,,,,,0,00,99.99,,,,,,*74
$GNGSA,M,1,,,,,,,,,,,,,99.99,99.99,99.99*22
$GNGSA,M,1,,,,,,,,,,,,,99.99,99.99,99.99*22
$GNRMC,090313.00,V,,,,,,,080523,,,N*67
$GNGGA,090313.00,,,,,0,00,99.99,,,,,,*70
$GNGSA,M,1,,,,,,,,,,,,,99.99,99.99,99.99*22
$GNGSA,M,1,,,,,,,,,,,,,99.99,99.99,99.99*22
$GNRMC,090313.50,V,,,,,,,080523,,,N*62
$GNGGA,090313.50,,,,,0,00,99.99,,,,,,*75
$GNGSA,M,1,,,,,,,,,,,,,99.99,99.99,99.99*22
$GNGSA,M,1,,,,,,,,,,,,,99.99,99.99,99.99*22
$GNRMC,090314.00,V,,,,,,,080523,,,N*60
$GNGGA,090314.00,,,,,0,00,99.99,,,,,,*77
$GNGSA,M,1,,,,,,,,,,,,,99.99,99.99,99.99*22
$GNGSA,M,1,,,,,,,,,,,,,99.99,99.99,99.99*22
$GNRMC,090314.50,V,,,,,,,080523,,,N*65
$GNGGA,090314.50,,,,,0,04,4.28,,,,,,*48
$GNGSA,M,1,20,,,,,,,,,,,,5.13,4.28,2.82*11
$GNGSA,M,1,82,65,66,,,,,,,,,,5.13,4.28,2.82*1A
$GNRMC,090315.00,V,,,,,,,080523,,,N*61
$GNGGA,090315.00,,,,,0,04,4.28,,,,,,*4C
$GNGSA,M,1,20,,,,,,,,,,,,5.13,4.28,2.82*11
$GNGSA,M,1,82,65,66,,,,,,,,,,5.13,4.28,2.82*1A
$GNRMC,090315.50,V,,,,,,,080523,,,N*64
$GNGGA,090315.50,,,,,0,04,4.28,,,,,,*49
$GNGSA,M,1,20,,,,,,,,,,,,5.13,4.28,2.82*11
$GNGSA,M,1,82,65,66,,,,,,,,,,5.13,4.28,2.82*1A
$GNRMC,090316.00,V,,,,,,,080523,,,N*62
$GNGGA,090316.00,,,,,0,05,3.86,,,,,,*4D
$GNGSA,M,1,11,20,,,,,,,,,,,4.65,3.86,2.58*15
$GNGSA,M,1,82,65,66,,,,,,,,,,4.65,3.86,2.58*1E
$GNRMC,090316.50,V,,,,,,,080523,,,N*67
$GNGGA,090316.50,,,,,0,04,4.28,,,,,,*4A
$GNGSA,M,1,20,,,,,,,,,,,,5.13,4.28,2.82*11
$GNGSA,M,1,82,65,66,,,,,,,,,,5.13,4.28,2.82*1A
$GNRMC,090317.00,V,,,,,,,080523,,,N*63
$GNGGA,090317.00,,,,,0,04,4.28,,,,,,*4E
$GNGSA,M,1,20,,,,,,,,,,,,5.13,4.28,2.82*11
$GNGSA,M,1,82,65,66,,,,,,,,,,5.13,4.28,2.82*1A
$GNRMC,090317.50,V,,,,,,,080523,,,N*66
$GNGGA,090317.50,,,,,0,04,4.28,,,,,,*4B
$GNGSA,M,1,20,,,,,,,,,,,,5.13,4.28,2.82*11
$GNGSA,M,1,82,65,66,,,,,,,,,,5.13,4.28,2.82*1A
$GNRMC,090318.00,V,,,,,,,080523,,,N*6C
$GNGGA,090318.00,,,,,0,04,4.28,,,,,,*41
$GNGSA,M,1,20,,,,,,,,,,,,5.13,4.28,2.82*11
$GNGSA,M,1,82,65,66,,,,,,,,,,5.13,4.28,2.82*1A
$GNRMC,090318.50,V,,,,,,,080523,,,N*69
$GNGGA,090318.50,,,,,0,04,4.28,,,,,,*44
$GNGSA,M,1,20,,,,,,,,,,,,5.13,4.28,2.82*11
$GNGSA,M,1,82,65,66,,,,,,,,,,5.13,4.28,2.82*1A
$GNRMC,090319.00,A,5023.74247,N,03029.12584,E,8.560,214.00,080523,,,A*76
$GNGGA,090319.00,5023.74247,N,03029.12584,E,1,04,4.28,336.5,M,25.8,M,,*42
$GNGSA,M,3,20,,,,,,,,,,,,5.13,4.28,2.82*13
$GNGSA,M,3,82,65,66,,,,,,,,,,5.13,4.28,2.82*18
$GNRMC,090319.50,A,5023.74060,N,03029.12340,E,9.712,210.58,080523,,,A*75
$GNGGA,090319.50,5023.74060,N,03029.12340,E,1,04,4.28,333.3,M,25.8,M,,*4D
$GNGSA,M,3,20,,,,,,,,,,,,5.13,4.28,2.82*13
$GNGSA,M,3,82,65,66,,,,,,,,,,5.13,4.28,2.82*18
$GNRMC,090320.00,A,5023.73775,N,03029.11856,E,9.532,206.09,080523,,,A*72
$GNGGA,090320.00,5023.73775,N,03029.11856,E,1,05,3.86,326.2,M,25.8,M,,*4E
$GNGSA,M,3,11,20,,,,,,,,,,,4.65,3.86,2.58*17
$GNGSA,M,3,82,65,66,,,,,,,,,,4.65,3.86,2.58*1C
$GNRMC,090320.50,A,5023.73387,N,03029.11371,E,9.877,207.15,080523,,,A*70
$GNGGA,090320.50,5023.73387,N,03029.11371,E,1,05,3.86,317.4,M,25.8,M,,*48
$GNGSA,M,3,11,20,,,,,,,,,,,4.65,3.86,2.58*17
$GNGSA,M,3,82,65,66,,,,,,,,,,4.65,3.86,2.58*1C
$GNRMC,090321.00,A,5023.73218,N,03029.11176,E,9.794,207.57,080523,,,A*72
$GNGGA,090321.00,5023.73218,N,03029.11176,E,1,05,3.86,314.6,M,25.8,M,,*4F
$GNGSA,M,3,11,20,,,,,,,,,,,4.65,3.86,2.59*16
$GNGSA,M,3,82,65,66,,,,,,,,,,4.65,3.86,2.59*1D
$GNRMC,090321.50,A,5023.72848,N,03029.10836,E,8.848,195.41,080523,,,A*75
$GNGGA,090321.50,5023.72848,N,03029.10836,E,1,04,4.28,308.6,M,25.8,M,,*47
